speed_x,altitude,course,courseVariation,accX,accY,accZ,roll,pitch,yaw,distanceAheadVehicle,timeOfImpactAheadVehicle,behaviour
65.2,612.7,331.9,0,-0.01,-0.047,0.023,-1.527,0.016,0.016,18.16,1,NORMAL
65.13,612.68,331.9,0,0.015,-0.043,0.02,-1.526,0.017,0.017,18.12,1,NORMAL
65.06,612.66,331.9,0,-0.028,-0.025,0.012,-1.528,0.018,0.018,17.905,0.995,NORMAL
64.99,612.64,331.9,0,-0.016,-0.029,0.008,-1.529,0.023,0.019,17.69,0.99,NORMAL
64.92,612.62,331.9,0,0.014,-0.006,0.016,-1.531,0.022,0.02,17.74,0.99,NORMAL
64.85,612.6,331.9,0,0.026,0.009,0.015,-1.531,0.019,0.021,17.78,0.99,NORMAL
64.78,612.58,331.9,0,0.036,0.003,0.011,-1.531,0.018,0.022,17.94,1,NORMAL
64.71,612.56,331.9,0,-0.061,-0.005,-0.03,-1.531,0.024,0.022,18.07,1.01,NORMAL
64.64,612.54,331.9,0,0.015,0.02,0.014,-1.532,0.025,0.022,18.17,1.01,NORMAL
64.57,612.52,331.9,0,-0.029,-0.032,0.014,-1.535,0.026,0.022,18.13,1.01,NORMAL
64.5,612.5,331.9,0,-0.032,0,0.022,-1.535,0.029,0.023,18.115,1.01,NORMAL
64.41,612.54,331.79,0.1055,0.037,-0.043,0.025,-1.538,0.032,0.024,18.1,1.01,NORMAL
64.32,612.58,331.68,0.211,0.05,0,-0.028,-1.535,0.032,0.025,17.83,1.01,NORMAL
64.23,612.62,331.57,0.3165,-0.025,0.019,-0.014,-1.533,0.03,0.024,17.62,1,NORMAL
64.14,612.66,331.46,0.422,-0.063,0.041,0.003,-1.534,0.028,0.024,16.68,0.94,NORMAL
64.05,612.7,331.35,0.5275,-0.009,0.016,0.008,-1.535,0.026,0.024,15.8,0.89,NORMAL
63.96,612.74,331.24,0.633,0.019,0.04,-0.015,-1.533,0.024,0.024,15.755,0.89,NORMAL
63.87,612.78,331.13,0.7385,0.018,0.01,-0.021,-1.529,0.022,0.024,15.71,0.89,NORMAL
63.78,612.82,331.02,0.844,0.033,-0.003,0.009,-1.529,0.023,0.024,15.25,0.86,NORMAL
63.69,612.86,330.91,0.9495,0.028,-0.02,-0.009,-1.527,0.023,0.024,14.04,0.79,NORMAL
63.6,612.9,330.8,1.055,0.029,-0.005,0,-1.523,0.022,0.025,13.35,0.76,NORMAL
63.46,612.94,330.8,1.055,0.003,-0.029,-0.014,-1.52,0.023,0.025,13.13,0.74,NORMAL
63.32,612.98,330.8,1.055,-0.017,-0.016,-0.021,-1.518,0.025,0.027,13.17,0.76,NORMAL
63.18,613.02,330.8,1.055,-0.003,-0.005,0.021,-1.518,0.026,0.03,13,0.75,NORMAL
63.04,613.06,330.8,1.055,0.047,0.015,0.005,-1.516,0.026,0.031,12.88,0.75,NORMAL
62.9,613.1,330.8,1.055,0.062,0.025,0.008,-1.513,0.024,0.033,12.89,0.75,NORMAL
62.76,613.14,330.8,1.055,0.038,-0.01,-0.004,-1.511,0.025,0.034,13.06,0.76,NORMAL
62.62,613.18,330.8,1.055,-0.023,-0.034,0.018,-1.512,0.029,0.035,13.23,0.77,NORMAL
62.48,613.22,330.8,1.055,-0.027,-0.028,0.037,-1.514,0.032,0.036,-1,-1,NORMAL
62.34,613.26,330.8,1.055,-0.033,-0.013,0.05,-1.518,0.035,0.037,6.25,-0.11,NORMAL
62.2,613.3,330.8,1.055,0.045,0.026,0.045,-1.519,0.032,0.038,13.5,0.78,NORMAL
62.07,613.32,330.73,1.0198,0.066,-0.018,0.038,-1.517,0.03,0.039,13.58,0.79,NORMAL
61.94,613.34,330.66,0.9846,0.043,0.005,0.007,-1.515,0.032,0.04,13.86,0.8,NORMAL
61.81,613.36,330.59,0.9494,0.014,0.023,0.062,-1.515,0.032,0.041,14.21,0.84,NORMAL
61.68,613.38,330.52,0.9142,0.044,-0.093,0.058,-1.513,0.03,0.042,14.6,0.86,NORMAL
61.55,613.4,330.45,0.879,-0.04,0.008,0.018,-1.511,0.025,0.043,15.03,0.89,NORMAL
61.42,613.42,330.38,0.8438,-0.076,0.005,0.019,-1.514,0.022,0.044,15.35,0.91,NORMAL
61.29,613.44,330.31,0.8086,-0.078,0.018,0.079,-1.518,0.02,0.044,15.62,0.92,NORMAL
61.16,613.46,330.24,0.7734,-0.023,-0.001,0.063,-1.523,0.022,0.046,15.34,0.91,NORMAL
61.03,613.48,330.17,0.7382,0.014,0.001,0.066,-1.529,0.022,0.047,15.23,0.9,NORMAL
60.9,613.5,330.1,0.703,0.056,0.017,0.071,-1.533,0.018,0.048,15.12,0.89,NORMAL
60.93,613.53,330.03,0.7733,0.067,-0.009,0.045,-1.533,0.014,0.048,14.94,0.88,NORMAL
60.96,613.56,329.96,0.8436,0.032,-0.051,0.071,-1.534,0.017,0.049,15.04,0.88,NORMAL
60.99,613.59,329.89,0.9139,0.02,-0.074,0.035,-1.535,0.023,0.05,15.12,0.89,NORMAL
61.02,613.62,329.82,0.9842,-0.009,-0.032,0.032,-1.536,0.022,0.051,15.44,0.91,NORMAL
61.05,613.65,329.75,1.0545,-0.043,-0.022,0.046,-1.542,0.018,0.052,15.56,0.92,NORMAL
61.08,613.68,329.68,1.1248,-0.063,-0.008,0.034,-1.544,0.013,0.053,15.63,0.92,NORMAL
61.11,613.71,329.61,1.1951,0.015,0.003,0.052,-1.548,0.013,0.055,15.84,0.93,NORMAL
61.14,613.74,329.54,1.2654,-0.015,-0.02,0.047,-1.554,0.015,0.057,15.86,0.93,NORMAL
61.17,613.77,329.47,1.3357,0.022,-0.02,0.031,-1.555,0.019,0.058,15.55,0.91,NORMAL
61.2,613.8,329.4,1.406,0.026,-0.058,0.041,-1.56,0.022,0.06,15.28,0.9,NORMAL
61.25,613.82,329.33,1.406,-0.002,-0.011,0.035,-1.567,0.022,0.062,15.35,0.9,NORMAL
61.3,613.84,329.26,1.406,-0.005,-0.025,0.014,-1.568,0.024,0.064,15.42,0.9,NORMAL
61.35,613.86,329.19,1.406,-0.002,-0.034,0.018,-1.569,0.025,0.067,15.53,0.91,NORMAL
61.4,613.88,329.12,1.406,-0.014,-0.032,0.026,-1.573,0.028,0.069,15.62,0.91,NORMAL
61.45,613.9,329.05,1.406,0,-0.006,0.022,-1.575,0.031,0.072,15.42,0.9,NORMAL
61.5,613.92,328.98,1.406,0.036,-0.011,0.031,-1.576,0.034,0.075,15.465,0.905,NORMAL
61.55,613.94,328.91,1.406,0.02,-0.058,0.019,-1.574,0.034,0.079,15.51,0.91,NORMAL
61.6,613.96,328.84,1.406,0.017,-0.074,0.029,-1.574,0.033,0.082,15.435,0.905,NORMAL
61.65,613.98,328.77,1.406,0.004,-0.036,0.017,-1.575,0.033,0.085,15.36,0.9,NORMAL
61.7,614,328.7,1.406,0.002,-0.012,0.014,-1.576,0.039,0.087,15.48,0.9,NORMAL
61.96,614.03,328.53,1.5115,0.022,0.066,0.037,-1.576,0.045,0.09,15.57,0.91,NORMAL
62.22,614.06,328.36,1.617,-0.011,0.017,0.019,-1.575,0.049,0.093,15.65,0.88,NORMAL
62.48,614.09,328.19,1.7225,-0.033,-0.028,0.01,-1.575,0.054,0.096,15.35,0.86,NORMAL
62.74,614.12,328.02,1.828,-0.004,-0.052,0.032,-1.574,0.056,0.098,15.55,0.87,NORMAL
63,614.15,327.85,1.9335,0.031,0.072,0.021,-1.573,0.055,0.098,15.5,0.87,NORMAL
63.26,614.18,327.68,2.039,0.043,0.052,0.013,-1.572,0.056,0.099,15.47,0.87,NORMAL
63.52,614.21,327.51,2.1445,0.028,0.04,0.043,-1.572,0.056,0.1,16.34,0.91,NORMAL
63.78,614.24,327.34,2.25,0.033,0.011,0.024,-1.569,0.056,0.1,16.82,0.94,NORMAL
64.04,614.27,327.17,2.3555,0.036,0.052,0.029,-1.567,0.056,0.101,17.37,0.97,NORMAL
64.3,614.3,327,2.461,-0.01,-0.009,0.02,-1.567,0.059,0.101,17.98,1.01,NORMAL
64.55,614.33,326.85,2.5313,-0.057,0.023,0.033,-1.574,0.054,0.101,18.44,1.03,NORMAL
64.8,614.36,326.7,2.6016,-0.034,0.042,0.037,-1.58,0.05,0.1,18.82,1.01,NORMAL
65.05,614.39,326.55,2.6719,0.01,0.075,0.027,-1.583,0.04,0.1,19.3,1.04,NORMAL
65.3,614.42,326.4,2.7422,0.018,0.03,0.008,-1.583,0.034,0.1,19.32,1.04,NORMAL
65.55,614.45,326.25,2.8125,-0.008,-0.022,0.016,-1.584,0.031,0.1,-1,-1,NORMAL
65.8,614.48,326.1,2.8828,-0.017,-0.031,0.023,-1.586,0.03,0.101,19.51,1.05,NORMAL
66.05,614.51,325.95,2.9531,-0.019,-0.011,0.014,-1.586,0.03,0.101,-1,-1,NORMAL
66.3,614.54,325.8,3.0234,-0.03,-0.011,0.001,-1.586,0.03,0.101,19.81,1.07,NORMAL
66.55,614.57,325.65,3.0937,-0.014,-0.013,0.024,-1.587,0.03,0.102,-1,-1,NORMAL
66.8,614.6,325.5,3.164,-0.01,-0.023,0.013,-1.589,0.029,0.103,-1,-1,NORMAL
67.01,614.6,325.54,2.9531,0.022,0.031,0.014,-1.59,0.027,0.103,-1,-1,NORMAL
67.22,614.6,325.58,2.7422,-0.012,0.026,-0.001,-1.589,0.027,0.103,-1,-1,NORMAL
67.43,614.6,325.62,2.5313,-0.021,0.008,0.003,-1.588,0.023,0.103,-1,-1,NORMAL
67.64,614.6,325.66,2.3204,-0.044,-0.007,0.013,-1.589,0.025,0.103,-1,-1,NORMAL
67.85,614.6,325.7,2.1095,-0.004,0.021,0.01,-1.59,0.028,0.103,-1,-1,NORMAL
68.06,614.6,325.74,1.8986,0.018,0.023,0.013,-1.589,0.026,0.102,-1,-1,NORMAL
68.27,614.6,325.78,1.6877,-0.005,0.033,0.002,-1.59,0.023,0.101,20.96,1.1,NORMAL
68.48,614.6,325.82,1.4768,-0.007,0.034,0.011,-1.59,0.022,0.1,21.16,1.11,NORMAL
68.69,614.6,325.86,1.2659,0,0.014,0.004,-1.592,0.02,0.099,21.12,1.1,NORMAL
68.9,614.6,325.9,1.055,0.004,-0.012,-0.0025,-1.592,0.0155,0.098,21.285,1.09,NORMAL
69.15,614.6,325.86,0.9847,0.008,-0.038,-0.009,-1.592,0.011,0.097,21.45,1.08,NORMAL
69.4,614.6,325.82,0.9144,-0.024,-0.011,0.01,-1.593,0.01,0.096,21.72,1.095,NORMAL
69.65,614.6,325.78,0.8441,-0.006,0.011,-0.01,-1.592,0.01,0.095,21.99,1.11,NORMAL
69.9,614.6,325.74,0.7738,-0.02,0.008,-0.004,-1.593,0.009,0.094,22.76,1.15,NORMAL
70.15,614.6,325.7,0.7035,-0.018,-0.006,0.001,-1.594,0.005,0.093,22.81,1.15,NORMAL
70.4,614.6,325.66,0.6332,-0.03,0.015,-0.005,-1.594,0.002,0.091,23.07,1.16,NORMAL
70.65,614.6,325.62,0.5629,-0.006,0.02,0.003,-1.594,0.003,0.09,23.27,1.17,NORMAL
70.9,614.6,325.58,0.4926,0.038,0.067,0,-1.596,0.004,0.089,23.21,1.17,NORMAL
71.15,614.6,325.54,0.4223,0.029,0.033,-0.002,-1.595,0.005,0.088,-1,-1,NORMAL
71.4,614.6,325.5,0.352,0.022,0.049,-0.012,-1.594,0.006,0.087,-1,-1,NORMAL
71.61,614.6,325.54,0.352,-0.04,-0.026,-0.007,-1.595,0.006,0.085,-1,-1,NORMAL
71.82,614.6,325.58,0.352,-0.035,0.014,-0.008,-1.595,0.006,0.084,-1,-1,NORMAL
72.03,614.6,325.62,0.352,-0.026,0.012,-0.03,-1.595,0.006,0.083,-1,-1,NORMAL
72.24,614.6,325.66,0.352,-0.037,0.007,-0.026,-1.591,0.004,0.082,-1,-1,NORMAL
72.45,614.6,325.7,0.352,-0.033,0.014,-0.044,-1.59,0.002,0.08,26.37,1.29,NORMAL
72.66,614.6,325.74,0.352,-0.027,0.001,-0.038,-1.586,-0.001,0.079,-1,-1,NORMAL
72.87,614.6,325.78,0.352,-0.002,0.022,-0.054,-1.582,-0.001,0.078,-1,-1,NORMAL
73.08,614.6,325.82,0.352,-0.02,0.014,-0.035,-1.579,-0.002,0.076,27.11,1.33,NORMAL
73.29,614.6,325.86,0.352,-0.012,0.018,-0.054,-1.574,-0.004,0.075,-1,-1,NORMAL
73.5,614.6,325.9,0.352,-0.016,0.01,-0.042,-1.569,-0.006,0.074,-1,-1,NORMAL
73.5,614.57,325.9,0.352,0.001,0.018,-0.033,-1.567,-0.005,0.072,27.17,1.33,NORMAL
73.5,614.54,325.9,0.352,-0.012,-0.015,-0.056,-1.563,-0.001,0.071,27.08,1.33,NORMAL
73.5,614.51,325.9,0.352,-0.007,0.017,-0.038,-1.564,-0.001,0.07,27,1.32,NORMAL
73.5,614.48,325.9,0.352,-0.012,0.002,-0.043,-1.565,-0.001,0.068,27.54,1.35,NORMAL
73.5,614.45,325.9,0.352,-0.04,-0.013,-0.02,-1.565,0,0.067,27.67,1.36,NORMAL
73.5,614.42,325.9,0.352,-0.011,0.01,-0.03,-1.565,0,0.066,28.07,1.37,NORMAL
73.5,614.39,325.9,0.352,0.01,0.023,-0.015,-1.564,0.002,0.065,28.42,1.39,NORMAL
73.5,614.36,325.9,0.352,0.011,0.02,-0.015,-1.563,0.003,0.063,28.69,1.41,NORMAL
73.5,614.33,325.9,0.352,-0.053,0.014,-0.008,-1.564,0.001,0.062,28.92,1.42,NORMAL
73.5,614.3,325.9,0.352,-0.062,0.004,0.006,-1.565,-0.001,0.061,29.45,1.44,NORMAL
73.53,614.3,325.93,0.352,-0.05,0.003,0.032,-1.571,-0.004,0.06,28.69,1.4,NORMAL
73.56,614.3,325.96,0.352,0.003,0.016,0.04,-1.575,-0.007,0.059,28.26,1.38,NORMAL
73.59,614.3,325.99,0.352,0.026,-0.009,0.023,-1.578,-0.008,0.058,28.19,1.38,NORMAL
73.62,614.3,326.02,0.352,0.026,-0.015,0.042,-1.581,-0.011,0.057,28.47,1.39,NORMAL
73.65,614.3,326.05,0.352,0.022,0.001,-0.001,-1.583,-0.015,0.056,29.575,1.445,NORMAL
73.68,614.3,326.08,0.352,0.01,-0.022,0.009,-1.582,-0.017,0.055,30.68,1.5,NORMAL
73.71,614.3,326.11,0.352,-0.047,-0.0175,0.0065,-1.5835,-0.0205,0.0545,30.975,1.515,NORMAL
73.74,614.3,326.14,0.352,-0.104,-0.013,0.004,-1.585,-0.024,0.054,31.27,1.53,NORMAL
73.77,614.3,326.17,0.352,-0.065,0.002,-0.003,-1.587,-0.028,0.054,31.1,1.52,NORMAL
73.8,614.3,326.2,0.352,-0.012,-0.042,0.016,-1.59,-0.032,0.053,31.145,1.52,NORMAL
73.99,614.26,326.28,0.4223,0.052,-0.004,0.017,-1.592,-0.031,0.053,31.19,1.52,NORMAL
74.18,614.22,326.36,0.4926,0.052,-0.01,-0.002,-1.591,-0.033,0.052,30.66,1.46,NORMAL
74.37,614.18,326.44,0.5629,-0.01,-0.013,-0.001,-1.591,-0.034,0.053,30.45,1.45,NORMAL
74.56,614.14,326.52,0.6332,-0.009,0.004,-0.009,-1.592,-0.031,0.052,30.65,1.46,NORMAL
74.75,614.1,326.6,0.7035,-0.026,-0.006,-0.003,-1.592,-0.031,0.053,30.44,1.45,NORMAL
74.94,614.06,326.68,0.7738,-0.031,-0.008,-0.008,-1.591,-0.033,0.054,31.02,1.47,NORMAL
75.13,614.02,326.76,0.8441,-0.027,-0.032,-0.005,-1.592,-0.032,0.055,31.12,1.48,NORMAL
75.32,613.98,326.84,0.9144,-0.008,-0.0245,-0.002,-1.592,-0.0315,0.0555,31.18,1.48,NORMAL
75.51,613.94,326.92,0.9847,0.011,-0.017,0.001,-1.592,-0.031,0.056,30.86,1.47,NORMAL
75.7,613.9,327,1.055,0.002,-0.043,0.001,-1.593,-0.031,0.058,30.95,1.47,NORMAL
75.93,613.96,326.75,0.9847,0.006,-0.055,-0.014,-1.592,-0.031,0.06,30.65,1.46,NORMAL
76.16,614.02,326.5,0.9144,-0.048,-0.057,-0.003,-1.591,-0.025,0.065,30.4,1.43,NORMAL
76.39,614.08,326.25,0.8441,-0.04,-0.034,-0.012,-1.591,-0.023,0.067,30.55,1.43,NORMAL
76.62,614.14,326,0.7738,-0.029,-0.0365,-0.0125,-1.591,-0.022,0.069,-1,-1,NORMAL
76.85,614.2,325.75,0.7035,-0.018,-0.039,-0.013,-1.591,-0.021,0.071,31.24,1.47,NORMAL
77.08,614.26,325.5,0.6332,0.001,-0.061,-0.009,-1.591,-0.019,0.074,-1,-1,NORMAL
77.31,614.32,325.25,0.5629,-0.001,-0.05,-0.002,-1.591,-0.019,0.078,32.42,1.52,NORMAL
77.54,614.38,325,0.4926,-0.019,-0.064,0,-1.59,-0.016,0.083,32.61,1.53,NORMAL
77.77,614.44,324.75,0.4223,-0.012,-0.056,-0.001,-1.59,-0.01,0.088,33.21,1.56,NORMAL
78,614.5,324.5,0.352,-0.014,-0.06,-0.021,-1.589,-0.006,0.092,33.71,1.58,NORMAL
78.03,614.57,324.25,0.5629,-0.005,-0.081,0.006,-1.588,-0.003,0.098,16.355,0.29,NORMAL
78.06,614.64,324,0.7738,-0.043,-0.046,-0.011,-1.587,0,0.103,-1,-1,NORMAL
78.09,614.71,323.75,0.9847,-0.02,-0.049,-0.007,-1.587,0.006,0.108,-1,-1,NORMAL
78.12,614.78,323.5,1.1956,-0.04,-0.056,-0.015,-1.588,0.011,0.113,36.54,1.69,NORMAL
78.15,614.85,323.25,1.4065,-0.035,-0.048,-0.021,-1.587,0.01,0.117,36.99,1.71,NORMAL
78.18,614.92,323,1.6174,-0.02,-0.013,-0.003,-1.589,0.01,0.121,37.94,1.75,NORMAL
78.21,614.99,322.75,1.8283,-0.03,-0.051,-0.01,-1.59,0.01,0.126,38.15,1.76,NORMAL
78.24,615.06,322.5,2.0392,-0.025,-0.015,-0.01,-1.59,0.01,0.131,37.84,1.75,NORMAL
78.27,615.13,322.25,2.2501,0.027,-0.002,0.004,-1.588,0.007,0.135,37.55,1.73,NORMAL
78.3,615.2,322,2.461,0.03,-0.015,-0.013,-1.588,0.01,0.139,37.3,1.72,NORMAL
78.39,615.23,321.86,2.6719,0.032,-0.025,0.002,-1.588,0.017,0.144,37.57,1.73,NORMAL
78.48,615.26,321.72,2.8828,-0.1,0.018,-0.059,-1.588,0.02,0.148,37.3,1.72,NORMAL
78.57,615.29,321.58,3.0937,-0.15,-0.005,-0.016,-1.591,0.024,0.152,36.59,1.68,NORMAL
78.66,615.32,321.44,3.3046,-0.091,0.006,0.001,-1.596,0.025,0.155,35.27,1.62,NORMAL
78.75,615.35,321.3,3.5155,-0.064,0.025,-0.042,-1.595,0.019,0.156,34.695,1.595,NORMAL
78.84,615.38,321.16,3.7264,-0.054,0.053,-0.001,-1.596,0.015,0.157,34.12,1.57,NORMAL
78.93,615.41,321.02,3.9373,0.065,0.093,0.018,-1.597,0.008,0.157,32.83,1.51,NORMAL
79.02,615.44,320.88,4.1482,0.053,0.139,-0.016,-1.595,0.002,0.157,32.02,1.47,NORMAL
79.11,615.47,320.74,4.3591,0.01,0.096,0.007,-1.593,0.002,0.155,31.73,1.46,NORMAL
79.2,615.5,320.6,4.57,-0.008,0.122,0.001,-1.592,0.006,0.154,31.14,1.43,NORMAL
79.2,615.5,320.6,4.4997,0.003,0.083,-0.001,-1.592,0.005,0.153,31.275,1.43,NORMAL
79.2,615.5,320.6,4.4294,0.001,0.061,-0.006,-1.591,0.001,0.151,31.41,1.43,NORMAL
79.2,615.5,320.6,4.3591,-0.032,0.084,-0.019,-1.59,-0.003,0.148,31.24,1.42,NORMAL
79.2,615.5,320.6,4.2888,-0.031,0.077,0.004,-1.592,-0.007,0.146,31.08,1.41,NORMAL
79.2,615.5,320.6,4.2185,-0.007,0.079,0.012,-1.593,-0.009,0.144,30.97,1.41,NORMAL
79.2,615.5,320.6,4.1482,0.007,0.064,-0.017,-1.591,-0.017,0.141,30.79,1.4,NORMAL
79.2,615.5,320.6,4.0779,-0.022,0.069,-0.004,-1.591,-0.022,0.138,31.14,1.42,NORMAL
79.2,615.5,320.6,4.0076,-0.07,0.089,0.004,-1.593,-0.027,0.134,31.28,1.425,NORMAL
79.2,615.5,320.6,3.9373,-0.055,0.079,0.016,-1.594,-0.033,0.131,31.42,1.43,NORMAL
79.2,615.5,320.6,3.867,-0.044,0.09,0.001,-1.596,-0.04,0.127,30.92,1.41,NORMAL
79.29,615.53,320.74,3.6209,0.06,0.063,0.033,-1.597,-0.045,0.124,29.87,1.36,NORMAL
79.38,615.56,320.88,3.3748,0.001,0.12,-0.029,-1.597,-0.051,0.119,29.27,1.32,NORMAL
79.47,615.59,321.02,3.1287,0.032,0.15,-0.011,-1.598,-0.051,0.113,29.12,1.31,NORMAL
79.56,615.62,321.16,2.8826,-0.016,0.078,0.039,-1.598,-0.05,0.106,28.98,1.3,NORMAL
79.65,615.65,321.3,2.6365,0.002,0.108,-0.004,-1.594,-0.055,0.099,28.56,1.28,NORMAL
79.74,615.68,321.44,2.3904,-0.016,0.173,-0.018,-1.592,-0.056,0.092,28.55,1.28,NORMAL
79.83,615.71,321.58,2.1443,-0.062,0.149,0.002,-1.592,-0.063,0.086,28.55,1.28,NORMAL
79.92,615.74,321.72,1.8982,-0.068,0.096,0.025,-1.596,-0.069,0.079,28.53,1.28,NORMAL
80.01,615.77,321.86,1.6521,-0.006,0.053,0.014,-1.599,-0.075,0.073,28.535,1.28,NORMAL
80.1,615.8,322,1.406,0.078,0.031,0.013,-1.598,-0.077,0.067,28.54,1.28,NORMAL
80.14,615.86,322.32,1.7224,0.0475,0.035,0.025,-1.598,-0.077,0.0625,28.54,1.28,NORMAL
80.18,615.92,322.64,2.0388,0.017,0.039,0.037,-1.598,-0.077,0.058,28.55,1.28,NORMAL
80.22,615.98,322.96,2.3552,-0.014,0.044,0.014,-1.598,-0.077,0.056,28.54,1.28,NORMAL
80.26,616.04,323.28,2.6716,-0.02,0.016,0.014,-1.598,-0.076,0.053,29.33,1.31,NORMAL
80.3,616.1,323.6,2.988,-0.011,-0.053,0.041,-1.597,-0.076,0.051,29.45,1.315,NORMAL
80.34,616.16,323.92,3.3044,-0.015,-0.06,0.019,-1.597,-0.078,0.048,29.57,1.32,NORMAL
80.38,616.22,324.24,3.6208,0.042,-0.007,0.044,-1.597,-0.081,0.045,29.77,1.33,NORMAL
80.42,616.28,324.56,3.9372,0.001,0.001,0.044,-1.596,-0.081,0.042,30.35,1.36,NORMAL
80.46,616.34,324.88,4.2536,-0.031,-0.027,0.012,-1.597,-0.076,0.041,30.42,1.36,NORMAL
80.5,616.4,325.2,4.57,-0.018,-0.01,0.047,-1.603,-0.067,0.039,30.645,1.37,NORMAL
80.65,616.47,325.3,4.5349,-0.03,-0.012,-0.002,-1.605,-0.067,0.038,30.87,1.38,NORMAL
80.8,616.54,325.4,4.4998,-0.022,-0.007,0.036,-1.608,-0.066,0.037,31.26,1.37,NORMAL
80.95,616.61,325.5,4.4647,-0.006,-0.024,0.025,-1.611,-0.062,0.036,31.18,1.37,NORMAL
81.1,616.68,325.6,4.4296,-0.012,-0.036,0.028,-1.613,-0.058,0.035,30.75,1.35,NORMAL
81.25,616.75,325.7,4.3945,0.012,-0.011,0.03,-1.615,-0.057,0.034,-1,-1,NORMAL
81.4,616.82,325.8,4.3594,0.05,-0.027,0.046,-1.616,-0.058,0.034,30.45,1.34,NORMAL
81.55,616.89,325.9,4.3243,0.034,-0.032,0.015,-1.618,-0.058,0.033,30.68,1.35,NORMAL
81.7,616.96,326,4.2892,-0.007,-0.017,0.039,-1.622,-0.056,0.032,30.91,1.36,NORMAL
81.85,617.03,326.1,4.2541,-0.009,-0.018,0.031,-1.626,-0.058,0.031,-1,-1,NORMAL
82,617.1,326.2,4.219,-0.048,-0.036,0.039,-1.629,-0.059,0.03,-1,-1,NORMAL
82.24,617.14,326.28,3.9729,-0.024,-0.007,0.052,-1.631,-0.06,0.03,-1,-1,NORMAL
82.48,617.18,326.36,3.7268,-0.019,0.011,0.019,-1.634,-0.056,0.029,-1,-1,NORMAL
82.72,617.22,326.44,3.4807,-0.013,-0.016,0.037,-1.639,-0.052,0.029,-1,-1,NORMAL
82.96,617.26,326.52,3.2346,0.007,-0.028,0.042,-1.644,-0.048,0.028,-1,-1,NORMAL
83.2,617.3,326.6,2.9885,-0.006,-0.029,0.012,-1.647,-0.048,0.028,-1,-1,NORMAL
83.44,617.34,326.68,2.7424,0.015,-0.04,0.046,-1.65,-0.045,0.029,-1,-1,NORMAL
83.68,617.38,326.76,2.4963,0.06,-0.058,0.035,-1.653,-0.039,0.03,-1,-1,NORMAL
83.92,617.42,326.84,2.2502,0.019,-0.06,0.009,-1.652,-0.035,0.032,-1,-1,NORMAL
84.16,617.46,326.92,2.0041,-0.073,-0.065,0.001,-1.652,-0.028,0.035,-1,-1,NORMAL
84.4,617.5,327,1.758,-0.076,-0.059,0.033,-1.656,-0.022,0.038,-1,-1,NORMAL
84.57,617.6,326.92,1.6525,0.007,-0.029,0.026,-1.658,-0.015,0.041,-1,-1,NORMAL
84.74,617.7,326.84,1.547,0.032,-0.062,0.013,-1.658,-0.01,0.045,-1,-1,NORMAL
84.91,617.8,326.76,1.4415,0.014,-0.047,0.004,-1.658,-0.006,0.048,-1,-1,NORMAL
85.08,617.9,326.68,1.336,-0.023,-0.053,0.006,-1.659,-0.001,0.052,-1,-1,NORMAL
85.25,618,326.6,1.2305,-0.009,-0.058,0.026,-1.661,0.003,0.055,-1,-1,NORMAL
85.42,618.1,326.52,1.125,0.004,-0.02,0.007,-1.662,0.005,0.058,-1,-1,NORMAL
85.59,618.2,326.44,1.0195,0.006,-0.025,-0.007,-1.661,0.009,0.06,-1,-1,NORMAL
85.76,618.3,326.36,0.914,0.001,-0.029,-0.01,-1.66,0.012,0.063,-1,-1,NORMAL
85.93,618.4,326.28,0.8085,0.003,0.013,-0.025,-1.658,0.013,0.066,-1,-1,NORMAL
86.1,618.5,326.2,0.703,0.004,0.025,-0.004,-1.656,0.008,0.067,61.41,2.57,NORMAL
86.76,618.55,326.35,0.7733,-0.025,0.004,-0.021,-1.657,0.005,0.069,61.4,2.57,NORMAL
87.42,618.6,326.5,0.8436,-0.008,0.008,0,-1.657,0.004,0.069,61.38,2.38,NORMAL
88.08,618.65,326.65,0.9139,0.015,0.004,-0.014,-1.656,0.003,0.07,61.82,2.4,NORMAL
88.74,618.7,326.8,0.9842,0.014,-0.011,-0.006,-1.655,0.003,0.071,61.36,2.38,NORMAL
89.4,618.75,326.95,1.0545,-0.008,-0.006,-0.01,-1.655,0.003,0.073,61.35,2.38,NORMAL
90.06,618.8,327.1,1.1248,-0.011,0.01,-0.005,-1.655,0.003,0.074,60.76,2.36,NORMAL
90.72,618.85,327.25,1.1951,-0.022,0.006,-0.004,-1.652,0,0.075,-1,-1,NORMAL
91.38,618.9,327.4,1.2654,-0.028,0.029,-0.017,-1.649,-0.004,0.076,29.335,0.66,NORMAL
92.04,618.95,327.55,1.3357,-0.029,0.013,-0.015,-1.648,-0.007,0.076,59.67,2.32,NORMAL
92.7,619,327.7,1.406,-0.041,0.007,-0.005,-1.648,-0.009,0.077,59.81,2.32,NORMAL
92.89,619.1,327.41,1.5466,-0.012,0.008,0.013,-1.649,-0.01,0.078,58.65,2.28,NORMAL
93.08,619.2,327.12,1.6872,0.016,0.025,-0.016,-1.648,-0.015,0.078,58.16,2.21,NORMAL
93.27,619.3,326.83,1.8278,0.017,0.054,-0.024,-1.645,-0.023,0.078,31.11,1.18,NORMAL
93.46,619.4,326.54,1.9684,-0.056,0.032,-0.005,-1.645,-0.024,0.078,-1,-1,NORMAL
93.65,619.5,326.25,2.109,-0.082,0.029,0.001,-1.647,-0.026,0.078,14.67,0.075,NORMAL
93.84,619.6,325.96,2.2496,-0.046,0.023,-0.001,-1.647,-0.029,0.077,30.34,1.15,NORMAL
94.03,619.7,325.67,2.3902,0.003,0.025,0.001,-1.646,-0.034,0.077,29.71,1.13,NORMAL
94.22,619.8,325.38,2.5308,0.022,0.016,0,-1.646,-0.034,0.077,28.91,1.1,NORMAL
94.41,619.9,325.09,2.6714,0,0.016,-0.01,-1.646,-0.033,0.077,28.52,1.08,NORMAL
94.6,620,324.8,2.812,0.008,0.029,-0.025,-1.642,-0.032,0.077,28.2,1.07,NORMAL
95.06,620.08,324.84,2.8472,-0.024,0.015,-0.031,-1.64,-0.036,0.077,27.94,1.06,NORMAL
95.52,620.16,324.88,2.8824,-0.012,0.013,-0.025,-1.638,-0.039,0.076,27.72,1.02,NORMAL
95.98,620.24,324.92,2.9176,0.005,0,-0.017,-1.637,-0.036,0.076,27.9,1.03,NORMAL
96.44,620.32,324.96,2.9528,0.023,0.015,-0.016,-1.636,-0.038,0.076,28.02,1.04,NORMAL
96.9,620.4,325,2.988,0,0.041,-0.024,-1.634,-0.038,0.076,27.915,1.035,NORMAL
97.36,620.48,325.04,3.0232,-0.037,0.036,-0.019,-1.634,-0.04,0.076,27.81,1.03,NORMAL
97.82,620.56,325.08,3.0584,0,0.017,-0.071,-1.629,-0.041,0.076,27.64,1.02,NORMAL
98.28,620.64,325.12,3.0936,0.024,-0.003,-0.1,-1.619,-0.039,0.076,27.49,1.02,NORMAL
98.74,620.72,325.16,3.1288,-0.003,-0.008,-0.096,-1.608,-0.039,0.076,28.09,1.04,NORMAL
99.2,620.8,325.2,3.164,0.019,0.012,-0.072,-1.593,-0.043,0.076,28.31,1.05,NORMAL
99.2,620.8,325.2,2.9179,0.019,0.012,-0.072,-1.593,-0.043,0.076,28.31,1.05,NORMAL
99.2,620.8,325.2,2.6718,0.008,0.017,-0.062,-1.589,-0.043,0.076,28.39,1.03,NORMAL
99.2,620.8,325.2,2.4257,-0.023,0.028,-0.053,-1.585,-0.044,0.076,28.46,1.03,NORMAL
99.2,620.8,325.2,2.1796,-0.036,0.002,-0.053,-1.58,-0.046,0.076,28.325,1.025,NORMAL
99.2,620.8,325.2,1.9335,-0.031,0.01,0.004,-1.579,-0.047,0.076,28.19,1.02,NORMAL
99.2,620.8,325.2,1.6874,-0.021,0.02,-0.006,-1.579,-0.049,0.075,27.68,1,NORMAL
99.2,620.8,325.2,1.4413,0.009,-0.013,0.019,-1.579,-0.048,0.075,27.24,0.99,NORMAL
99.2,620.8,325.2,1.1952,-0.008,-0.019,0.016,-1.58,-0.046,0.076,27.19,0.99,NORMAL
99.2,620.8,325.2,0.9491,-0.017,-0.017,0.015,-1.582,-0.043,0.076,26.84,0.97,NORMAL
99.2,620.8,325.2,0.703,0.012,-0.009,0.01,-1.582,-0.04,0.076,26.705,0.965,NORMAL
99.15,620.87,325.23,0.7382,0.004,-0.004,-0.005,-1.581,-0.039,0.077,26.57,0.96,NORMAL
99.1,620.94,325.26,0.7734,-0.004,-0.016,0.02,-1.583,-0.036,0.077,26.63,0.97,NORMAL
99.05,621.01,325.29,0.8086,-0.016,-0.047,0.017,-1.584,-0.031,0.079,26.51,0.965,NORMAL
99,621.08,325.32,0.8438,-0.026,-0.051,-0.005,-1.584,-0.026,0.082,26.39,0.96,NORMAL
98.95,621.15,325.35,0.879,-0.028,-0.051,0.006,-1.584,-0.018,0.084,25.92,0.95,NORMAL
98.9,621.22,325.38,0.9142,-0.008,-0.055,0.019,-1.585,-0.016,0.086,25.82,0.94,NORMAL
98.85,621.29,325.41,0.9494,0.001,-0.025,0.003,-1.587,-0.013,0.088,25.2,0.92,NORMAL
98.8,621.36,325.44,0.9846,0.018,-0.004,0.013,-1.588,-0.007,0.09,24.69,0.9,NORMAL
98.75,621.43,325.47,1.0198,0.028,-0.013,0.022,-1.589,-0.003,0.093,24.05,0.88,NORMAL
98.7,621.5,325.5,1.055,-0.011,-0.043,0.008,-1.59,0.001,0.096,23.785,0.87,NORMAL
98.81,621.52,325.4,1.055,-0.025,-0.068,0.005,-1.591,0.004,0.099,23.52,0.86,NORMAL
98.92,621.54,325.3,1.055,-0.052,-0.013,0.006,-1.59,0.006,0.101,23.33,0.84,NORMAL
99.03,621.56,325.2,1.055,-0.063,-0.016,0.03,-1.592,0.007,0.104,22.55,0.81,NORMAL
99.14,621.58,325.1,1.055,-0.027,-0.032,0.002,-1.593,0.005,0.107,22.33,0.81,NORMAL
99.25,621.6,325,1.055,0.089,-0.039,0.035,-1.594,0.006,0.109,21.72,0.78,NORMAL
99.36,621.62,324.9,1.055,0.117,-0.016,0.016,-1.593,0.008,0.112,21.26,0.77,NORMAL
99.47,621.64,324.8,1.055,0.059,-0.039,0.021,-1.593,0.01,0.115,20.87,0.75,NORMAL
99.58,621.66,324.7,1.055,-0.013,-0.015,0.009,-1.595,0.015,0.117,9.935,-0.125,NORMAL
99.69,621.68,324.6,1.055,-0.063,0.007,0.001,-1.594,0.015,0.119,-1,-1,NORMAL
99.8,621.7,324.5,1.055,-0.055,0,0.0135,-1.5955,0.0135,0.1205,-1,-1,NORMAL
99.93,621.77,324.39,1.1604,-0.047,-0.007,0.026,-1.597,0.012,0.122,9.32,-0.15,NORMAL
100.06,621.84,324.28,1.2658,0.029,0.014,-0.003,-1.6,0.011,0.123,19.64,0.7,NORMAL
100.19,621.91,324.17,1.3712,0.021,0.02,0.004,-1.601,0.007,0.123,19.305,0.69,NORMAL
100.32,621.98,324.06,1.4766,-0.016,0.039,-0.007,-1.601,0,0.124,18.97,0.68,NORMAL
100.45,622.05,323.95,1.582,-0.056,0.052,0,-1.602,-0.002,0.123,18.86,0.675,NORMAL
100.58,622.12,323.84,1.6874,-0.036,0.033,-0.016,-1.602,-0.007,0.123,18.75,0.67,NORMAL
100.71,622.19,323.73,1.7928,0.021,0.043,0.008,-1.601,-0.011,0.122,18.42,0.66,NORMAL
100.84,622.26,323.62,1.8982,0.026,0.026,0.004,-1.601,-0.014,0.121,18,0.64,NORMAL
100.97,622.33,323.51,2.0036,0.05,0.049,0.01,-1.602,-0.018,0.12,17.69,0.63,NORMAL
101.1,622.4,323.4,2.109,0.024,0.029,-0.001,-1.601,-0.025,0.119,17.16,0.61,NORMAL
101.46,622.47,323.44,2.109,-0.032,0.058,0.009,-1.602,-0.025,0.119,-1,-1,NORMAL
101.82,622.54,323.48,2.109,-0.06,0.047,0,-1.601,-0.027,0.118,16.82,0.59,NORMAL
102.18,622.61,323.52,2.109,-0.046,0.004,0.003,-1.601,-0.026,0.118,-1,-1,NORMAL
102.54,622.68,323.56,2.109,-0.019,0.005,-0.015,-1.6,-0.027,0.117,-1,-1,NORMAL
102.9,622.75,323.6,2.109,-0.003,0.03,0.009,-1.601,-0.027,0.117,15.73,0.55,NORMAL
103.26,622.82,323.64,2.109,-0.012,0.023,-0.016,-1.601,-0.027,0.116,-1,-1,NORMAL
103.62,622.89,323.68,2.109,-0.036,0.021,0.003,-1.602,-0.027,0.116,-1,-1,NORMAL
103.98,622.96,323.72,2.109,-0.031,0.02,-0.002,-1.601,-0.03,0.115,-1,-1,NORMAL
104.34,623.03,323.76,2.109,-0.03,0.026,0,-1.602,-0.028,0.114,-1,-1,NORMAL
104.7,623.1,323.8,2.109,-0.013,0.013,0.011,-1.601,-0.029,0.113,-1,-1,NORMAL
104.7,623.1,323.8,2.0387,-0.013,0.013,0.011,-1.601,-0.029,0.113,-1,-1,NORMAL
104.7,623.1,323.8,1.9684,-0.002,-0.001,-0.014,-1.6,-0.031,0.112,-1,-1,NORMAL
104.7,623.1,323.8,1.8981,-0.016,-0.013,0,-1.6,-0.027,0.111,-1,-1,NORMAL
104.7,623.1,323.8,1.8278,-0.029,0.042,-0.002,-1.601,-0.027,0.11,-1,-1,NORMAL
104.7,623.1,323.8,1.7575,-0.019,0.017,-0.003,-1.601,-0.028,0.109,-1,-1,NORMAL
104.7,623.1,323.8,1.6872,-0.013,0.007,0.003,-1.601,-0.029,0.109,-1,-1,NORMAL
104.7,623.1,323.8,1.6169,-0.015,0.01,-0.006,-1.601,-0.027,0.108,-1,-1,NORMAL
104.7,623.1,323.8,1.5466,0,0.004,0.009,-1.602,-0.023,0.107,-1,-1,NORMAL
104.7,623.1,323.8,1.4763,0.033,0.032,0.021,-1.603,-0.025,0.106,-1,-1,NORMAL
104.7,623.1,323.8,1.406,0.051,-0.004,-0.01,-1.601,-0.026,0.105,-1,-1,NORMAL
104.86,623.15,323.83,1.4412,0.016,0.024,-0.018,-1.6,-0.027,0.104,-1,-1,NORMAL
105.02,623.2,323.86,1.4764,-0.046,0.005,0.003,-1.6,-0.026,0.103,-1,-1,NORMAL
105.18,623.25,323.89,1.5116,-0.054,0.001,0.001,-1.6,-0.026,0.102,-1,-1,NORMAL
105.34,623.3,323.92,1.5468,-0.042,-0.013,0.009,-1.6,-0.028,0.101,-1,-1,NORMAL
105.5,623.35,323.95,1.582,0.018,0.012,-0.019,-1.6,-0.028,0.099,-1,-1,NORMAL
105.66,623.4,323.98,1.6172,0.012,-0.007,0.001,-1.6,-0.023,0.099,-1,-1,NORMAL
105.82,623.45,324.01,1.6524,-0.021,-0.042,0.001,-1.601,-0.018,0.099,-1,-1,NORMAL
105.98,623.5,324.04,1.6876,-0.061,-0.08,-0.004,-1.599,-0.013,0.1,-1,-1,NORMAL
106.14,623.55,324.07,1.7228,-0.024,-0.076,-0.003,-1.599,-0.009,0.102,-1,-1,NORMAL
106.3,623.6,324.1,1.758,0.027,-0.085,-0.007,-1.6,0.001,0.104,-1,-1,NORMAL
106.38,623.63,324.14,1.6525,0.001,-0.068,-0.009,-1.599,0.007,0.105,-1,-1,NORMAL
106.46,623.66,324.18,1.547,-0.008,-0.043,-0.007,-1.598,0.01,0.107,-1,-1,NORMAL
106.54,623.69,324.22,1.4415,-0.014,-0.031,-0.006,-1.598,0.013,0.108,-1,-1,NORMAL
106.62,623.72,324.26,1.336,-0.018,0.003,-0.019,-1.598,0.016,0.108,-1,-1,NORMAL
106.7,623.75,324.3,1.2305,0.018,0.007,0,-1.598,0.017,0.108,-1,-1,NORMAL
106.78,623.78,324.34,1.125,-0.007,0.016,0.006,-1.599,0.017,0.108,-1,-1,NORMAL
106.86,623.81,324.38,1.0195,-0.002,0.013,-0.022,-1.598,0.016,0.108,-1,-1,NORMAL
106.94,623.84,324.42,0.914,0.005,-0.004,-0.003,-1.598,0.016,0.107,-1,-1,NORMAL
107.02,623.87,324.46,0.8085,0.028,0.018,-0.004,-1.597,0.015,0.106,-1,-1,NORMAL
107.1,623.9,324.5,0.703,-0.008,0.043,-0.014,-1.596,0.013,0.105,-1,-1,NORMAL
107.26,623.97,324.46,0.6679,-0.03,0.026,-0.022,-1.593,0.011,0.105,-1,-1,NORMAL
107.42,624.04,324.42,0.6328,-0.037,0.009,-0.004,-1.593,0.009,0.104,-1,-1,NORMAL
107.58,624.11,324.38,0.5977,-0.007,0.03,0,-1.595,0.007,0.103,-1,-1,NORMAL
107.74,624.18,324.34,0.5626,-0.064,0.018,-0.023,-1.595,0.007,0.102,-1,-1,NORMAL
107.9,624.25,324.3,0.5275,-0.076,0.003,-0.018,-1.594,0.004,0.102,-1,-1,NORMAL
108.06,624.32,324.26,0.4924,-0.071,0.011,-0.002,-1.594,0.001,0.101,-1,-1,NORMAL
108.22,624.39,324.22,0.4573,0.009,0.016,0.016,-1.595,-0.003,0.1,-1,-1,NORMAL
108.38,624.46,324.18,0.4222,0.027,0.022,-0.013,-1.594,-0.001,0.099,-1,-1,NORMAL
108.54,624.53,324.14,0.3871,0.057,0.023,0.009,-1.594,0.001,0.099,-1,-1,NORMAL
108.7,624.6,324.1,0.352,0.11,0.016,-0.011,-1.589,0.001,0.098,-1,-1,NORMAL
108.76,624.64,324.1,0.352,0.035,-0.021,-0.026,-1.587,-0.001,0.097,-1,-1,NORMAL
108.82,624.68,324.1,0.352,-0.077,0.002,0.005,-1.587,-0.002,0.096,-1,-1,NORMAL
108.88,624.72,324.1,0.352,-0.064,0.021,0.002,-1.587,-0.005,0.095,-1,-1,NORMAL
108.94,624.76,324.1,0.352,-0.025,0.012,-0.025,-1.584,-0.007,0.095,-1,-1,NORMAL
109,624.8,324.1,0.352,0.004,-0.014,-0.015,-1.583,-0.008,0.095,-1,-1,NORMAL
109.06,624.84,324.1,0.352,0.009,-0.004,0.002,-1.583,-0.007,0.094,-1,-1,NORMAL
109.12,624.88,324.1,0.352,0.023,0.008,-0.003,-1.584,-0.008,0.093,-1,-1,NORMAL
109.18,624.92,324.1,0.352,-0.01,0.01,-0.005,-1.583,-0.012,0.092,-1,-1,NORMAL
109.24,624.96,324.1,0.352,-0.059,-0.002,0.011,-1.584,-0.012,0.091,-1,-1,NORMAL
109.3,625,324.1,0.352,-0.003,0.011,-0.003,-1.583,-0.014,0.091,-1,-1,NORMAL
109.36,625.03,324.14,0.352,0.039,-0.032,-0.009,-1.582,-0.013,0.09,-1,-1,NORMAL
109.42,625.06,324.18,0.352,0.013,-0.017,-0.016,-1.581,-0.011,0.089,-1,-1,NORMAL
109.48,625.09,324.22,0.352,0.013,-0.017,-0.016,-1.581,-0.011,0.089,-1,-1,NORMAL
109.54,625.12,324.26,0.352,-0.036,0.02,-0.01,-1.582,-0.012,0.088,-1,-1,NORMAL
109.6,625.15,324.3,0.352,-0.017,-0.003,0.004,-1.581,-0.01,0.087,-1,-1,NORMAL
109.66,625.18,324.34,0.352,-0.041,0,-0.017,-1.579,-0.009,0.087,-1,-1,NORMAL
109.72,625.21,324.38,0.352,-0.054,-0.016,-0.015,-1.578,-0.008,0.087,-1,-1,NORMAL
109.78,625.24,324.42,0.352,-0.054,-0.016,-0.015,-1.578,-0.008,0.087,-1,-1,NORMAL
109.84,625.27,324.46,0.352,-0.009,-0.027,-0.013,-1.577,-0.008,0.086,-1,-1,NORMAL
109.9,625.3,324.5,0.352,0.047,0,-0.007,-1.577,-0.008,0.085,-1,-1,NORMAL
109.96,625.38,324.53,0.3871,-0.03,-0.018,-0.012,-1.577,-0.005,0.085,-1,-1,NORMAL
110.02,625.46,324.56,0.4222,-0.036,-0.028,-0.01,-1.576,-0.005,0.086,-1,-1,NORMAL
110.08,625.54,324.59,0.4573,-0.036,-0.028,-0.01,-1.576,-0.005,0.086,-1,-1,NORMAL
110.14,625.62,324.62,0.4924,-0.044,-0.035,-0.013,-1.576,-0.004,0.086,-1,-1,NORMAL
110.2,625.7,324.65,0.5275,0.002,-0.007,-0.003,-1.574,-0.006,0.086,-1,-1,NORMAL
110.26,625.78,324.68,0.5626,0.032,-0.018,0,-1.574,-0.005,0.086,-1,-1,NORMAL
110.32,625.86,324.71,0.5977,-0.013,-0.039,-0.008,-1.574,-0.006,0.086,-1,-1,NORMAL
110.38,625.94,324.74,0.6328,-0.013,-0.039,-0.008,-1.574,-0.006,0.086,-1,-1,NORMAL
110.44,626.02,324.77,0.6679,-0.031,-0.011,-0.005,-1.574,-0.006,0.086,-1,-1,NORMAL
110.5,626.1,324.8,0.703,-0.0185,-0.012,-0.011,-1.572,-0.0075,0.0865,-1,-1,NORMAL
110.93,626.09,324.84,0.703,-0.006,-0.013,-0.017,-1.57,-0.009,0.087,-1,-1,NORMAL
111.36,626.08,324.88,0.703,0.007,-0.015,0.018,-1.571,-0.008,0.087,-1,-1,NORMAL
111.79,626.07,324.92,0.703,-0.027,-0.004,-0.014,-1.571,-0.01,0.087,-1,-1,NORMAL
112.22,626.06,324.96,0.703,-0.027,-0.0245,-0.0095,-1.57,-0.0105,0.087,-1,-1,NORMAL
112.65,626.05,325,0.703,-0.027,-0.045,-0.005,-1.569,-0.011,0.087,-1,-1,NORMAL
113.08,626.04,325.04,0.703,0.034,0.004,-0.024,-1.567,-0.009,0.088,-1,-1,NORMAL
113.51,626.03,325.08,0.703,0.002,-0.038,-0.013,-1.566,-0.006,0.088,-1,-1,NORMAL
113.94,626.02,325.12,0.703,-0.048,-0.044,0.004,-1.567,-0.003,0.089,-1,-1,NORMAL
114.37,626.01,325.16,0.703,0.025,0.026,-0.007,-1.566,-0.003,0.089,-1,-1,NORMAL
114.8,626,325.2,0.703,0.0075,0.012,-0.0005,-1.564,-0.0035,0.0895,-1,-1,NORMAL
114.44,626.05,325.13,0.703,-0.01,-0.002,0.006,-1.562,-0.004,0.09,-1,-1,NORMAL
114.08,626.1,325.06,0.703,0.011,-0.001,0,-1.5615,-0.003,0.09,-1,-1,NORMAL
113.72,626.15,324.99,0.703,0.032,0,-0.006,-1.561,-0.002,0.09,-1,-1,NORMAL
113.36,626.2,324.92,0.703,0.028,-0.017,-0.007,-1.559,-0.004,0.09,-1,-1,NORMAL
113,626.25,324.85,0.703,-0.003,-0.025,-0.009,-1.558,-0.002,0.09,-1,-1,NORMAL
112.64,626.3,324.78,0.703,-0.001,0.01,0.005,-1.559,0,0.091,-1,-1,NORMAL
112.28,626.35,324.71,0.703,-0.002,0.013,-0.005,-1.559,0,0.091,-1,-1,NORMAL
111.92,626.4,324.64,0.703,-0.027,0.021,-0.008,-1.559,-0.002,0.091,-1,-1,NORMAL
111.56,626.45,324.57,0.703,-0.058,0.004,-0.013,-1.558,-0.003,0.09,-1,-1,NORMAL
111.2,626.5,324.5,0.703,-0.016,0.025,-0.001,-1.559,-0.005,0.09,-1,-1,NORMAL
111.17,626.56,324.5,0.703,0.007,0.012,-0.016,-1.559,-0.009,0.09,-1,-1,NORMAL
111.14,626.62,324.5,0.703,0.028,0.015,0.012,-1.559,-0.01,0.089,-1,-1,NORMAL
111.11,626.68,324.5,0.703,-0.012,-0.02,0.011,-1.56,-0.011,0.089,-1,-1,NORMAL
111.08,626.74,324.5,0.703,-0.006,0.028,0.006,-1.559,-0.015,0.087,-1,-1,NORMAL
111.05,626.8,324.5,0.703,0.001,0.043,-0.018,-1.558,-0.022,0.085,-1,-1,NORMAL
111.02,626.86,324.5,0.703,-0.016,0.052,0.016,-1.559,-0.026,0.083,-1,-1,NORMAL
110.99,626.92,324.5,0.703,-0.027,0.072,-0.004,-1.559,-0.034,0.08,-1,-1,NORMAL
110.96,626.98,324.5,0.703,0.004,0.048,0.003,-1.559,-0.04,0.078,-1,-1,NORMAL
110.93,627.04,324.5,0.703,-0.007,0.026,-0.002,-1.559,-0.041,0.076,-1,-1,NORMAL
110.9,627.1,324.5,0.703,-0.044,0.006,0.004,-1.56,-0.04,0.074,-1,-1,NORMAL
111.04,627.12,324.57,0.703,-0.066,0.026,0,-1.561,-0.043,0.072,-1,-1,NORMAL
111.18,627.14,324.64,0.703,-0.081,0.031,0.003,-1.563,-0.046,0.07,-1,-1,NORMAL
111.32,627.16,324.71,0.703,-0.033,0.039,-0.001,-1.566,-0.048,0.069,-1,-1,NORMAL
111.46,627.18,324.78,0.703,-0.038,0.001,-0.002,-1.568,-0.049,0.067,-1,-1,NORMAL
111.6,627.2,324.85,0.703,-0.098,0.004,0.004,-1.571,-0.049,0.065,-1,-1,NORMAL
111.74,627.22,324.92,0.703,0.055,0.025,0.03,-1.571,-0.05,0.064,-1,-1,NORMAL
111.88,627.24,324.99,0.703,0.17,-0.024,-0.011,-1.566,-0.047,0.063,-1,-1,NORMAL
112.02,627.26,325.06,0.703,0.067,-0.024,-0.001,-1.566,-0.047,0.061,-1,-1,NORMAL
112.16,627.28,325.13,0.703,0.002,-0.023,0.017,-1.566,-0.047,0.06,-1,-1,NORMAL
112.3,627.3,325.2,0.703,0.01,-0.011,0.004,-1.564,-0.044,0.06,-1,-1,NORMAL
112.16,627.32,325.27,0.7733,-0.082,-0.019,-0.018,-1.563,-0.042,0.059,-1,-1,NORMAL
112.02,627.34,325.34,0.8436,-0.064,-0.01,0.015,-1.563,-0.042,0.058,-1,-1,NORMAL
111.88,627.36,325.41,0.9139,0.093,-0.008,0.027,-1.563,-0.041,0.058,-1,-1,NORMAL
111.74,627.38,325.48,0.9842,0.013,-0.023,-0.033,-1.56,-0.039,0.057,-1,-1,NORMAL
111.6,627.4,325.55,1.0545,-0.151,-0.043,0.007,-1.564,-0.036,0.058,-1,-1,NORMAL
111.46,627.42,325.62,1.1248,-0.14,-0.015,0.028,-1.566,-0.037,0.058,-1,-1,NORMAL
111.32,627.44,325.69,1.1951,-0.015,-0.013,0.011,-1.568,-0.032,0.058,-1,-1,NORMAL
111.18,627.46,325.76,1.2654,0.154,-0.02,0.012,-1.57,-0.028,0.058,-1,-1,NORMAL
111.04,627.48,325.83,1.3357,0.111,-0.029,-0.037,-1.568,-0.025,0.058,-1,-1,NORMAL
110.9,627.5,325.9,1.406,0.011,-0.029,0.005,-1.57,-0.018,0.058,-1,-1,NORMAL
110.92,627.52,325.93,1.3709,-0.052,-0.041,0,-1.571,-0.014,0.058,-1,-1,NORMAL
110.94,627.54,325.96,1.3358,-0.09,-0.065,-0.014,-1.571,-0.011,0.058,-1,-1,NORMAL
110.96,627.56,325.99,1.3007,-0.091,-0.019,-0.013,-1.571,-0.012,0.059,-1,-1,NORMAL
110.98,627.58,326.02,1.2656,-0.025,-0.025,-0.035,-1.571,-0.011,0.059,-1,-1,NORMAL
111,627.6,326.05,1.2305,0.003,-0.018,-0.008,-1.572,-0.006,0.06,-1,-1,NORMAL
111.02,627.62,326.08,1.1954,-0.003,-0.01,-0.053,-1.569,-0.004,0.06,-1,-1,NORMAL
111.04,627.64,326.11,1.1603,-0.008,-0.031,-0.036,-1.565,-0.001,0.061,-1,-1,NORMAL
111.06,627.66,326.14,1.1252,0.028,-0.047,-0.05,-1.558,0.003,0.063,-1,-1,NORMAL
111.08,627.68,326.17,1.0901,0.012,-0.065,-0.047,-1.554,0.007,0.065,-1,-1,NORMAL
111.1,627.7,326.2,1.055,-0.057,-0.065,-0.045,-1.553,0.006,0.067,-1,-1,NORMAL
111.03,627.75,326.2,0.9847,-0.039,-0.057,-0.057,-1.552,0.007,0.069,-1,-1,NORMAL
110.96,627.8,326.2,0.9144,-0.007,-0.038,-0.015,-1.551,0.01,0.071,-1,-1,NORMAL
110.89,627.85,326.2,0.8441,-0.034,-0.017,-0.025,-1.551,0.014,0.073,-1,-1,NORMAL
110.82,627.9,326.2,0.7738,0.004,-0.041,-0.035,-1.55,0.02,0.074,-1,-1,NORMAL
110.75,627.95,326.2,0.7035,-0.002,-0.027,-0.03,-1.548,0.022,0.076,-1,-1,NORMAL
110.68,628,326.2,0.6332,-0.033,0,-0.021,-1.547,0.023,0.077,-1,-1,NORMAL
110.61,628.05,326.2,0.5629,0.016,0.009,0.008,-1.544,0.023,0.079,-1,-1,NORMAL
110.54,628.1,326.2,0.4926,-0.009,-0.037,-0.043,-1.541,0.027,0.08,-1,-1,NORMAL
110.47,628.15,326.2,0.4223,-0.027,-0.014,-0.005,-1.542,0.029,0.081,-1,-1,NORMAL
110.4,628.2,326.2,0.352,0.039,-0.018,0.001,-1.541,0.032,0.082,-1,-1,NORMAL
110.27,628.21,326.1,0.4223,-0.008,-0.026,-0.049,-1.536,0.029,0.083,-1,-1,NORMAL
110.14,628.22,326,0.4926,-0.105,0.005,-0.023,-1.537,0.028,0.084,-1,-1,NORMAL
110.01,628.23,325.9,0.5629,-0.099,0.016,-0.027,-1.537,0.027,0.084,-1,-1,NORMAL
109.88,628.24,325.8,0.6332,-0.048,-0.011,-0.027,-1.535,0.025,0.085,-1,-1,NORMAL
109.75,628.25,325.7,0.7035,0.082,0.001,-0.004,-1.534,0.026,0.086,-1,-1,NORMAL
109.62,628.26,325.6,0.7738,0.035,0.031,-0.012,-1.533,0.023,0.087,-1,-1,NORMAL
109.49,628.27,325.5,0.8441,-0.073,0.005,0.012,-1.534,0.024,0.087,-1,-1,NORMAL
109.36,628.28,325.4,0.9144,-0.051,-0.023,0.007,-1.536,0.026,0.088,-1,-1,NORMAL
109.23,628.29,325.3,0.9847,-0.004,-0.016,0.011,-1.537,0.026,0.088,-1,-1,NORMAL
109.1,628.3,325.2,1.055,0.094,0.013,0.027,-1.536,0.02,0.088,-1,-1,NORMAL
108.91,628.34,325.16,1.0901,0.027,0.033,-0.011,-1.533,0.017,0.088,-1,-1,NORMAL
108.72,628.38,325.12,1.1252,-0.068,0.037,0.001,-1.534,0.011,0.088,-1,-1,NORMAL
108.53,628.42,325.08,1.1603,-0.063,0.035,0.026,-1.537,0.008,0.088,-1,-1,NORMAL
108.34,628.46,325.04,1.1954,0.031,-0.002,0.016,-1.538,0.009,0.089,-1,-1,NORMAL
108.15,628.5,325,1.2305,0.008,0.006,0.012,-1.54,0.013,0.089,-1,-1,NORMAL
107.96,628.54,324.96,1.2656,-0.034,-0.002,0.012,-1.541,0.013,0.089,-1,-1,NORMAL
107.77,628.58,324.92,1.3007,0.024,0.001,0.029,-1.542,0.012,0.089,-1,-1,NORMAL
107.58,628.62,324.88,1.3358,0.018,0.011,0.019,-1.544,0.012,0.089,-1,-1,NORMAL
107.39,628.66,324.84,1.3709,0.003,0.034,0.014,-1.545,0.012,0.09,-1,-1,NORMAL
107.2,628.7,324.8,1.406,-0.019,0.004,0.041,-1.547,0.012,0.09,-1,-1,NORMAL
107.17,628.77,324.84,1.3006,0.003,0.031,0.039,-1.55,0.011,0.09,-1,-1,NORMAL
107.14,628.84,324.88,1.1952,-0.037,0.01,0.031,-1.553,0.014,0.09,-1,-1,NORMAL
107.11,628.91,324.92,1.0898,0.019,-0.003,0.033,-1.556,0.016,0.09,-1,-1,NORMAL
107.08,628.98,324.96,0.9844,0.011,0.005,0.015,-1.559,0.016,0.09,-1,-1,NORMAL
107.05,629.05,325,0.879,-0.04,0.009,0.019,-1.561,0.014,0.09,-1,-1,NORMAL
107.02,629.12,325.04,0.7736,-0.053,0.012,0.012,-1.562,0.012,0.09,-1,-1,NORMAL
106.99,629.19,325.08,0.6682,-0.035,0.012,0.028,-1.564,0.012,0.09,-1,-1,NORMAL
106.96,629.26,325.12,0.5628,0.019,0.033,0.027,-1.565,0.011,0.09,-1,-1,NORMAL
106.93,629.33,325.16,0.4574,-0.01,-0.017,-0.003,-1.565,0.011,0.09,-1,-1,NORMAL
106.9,629.4,325.2,0.352,-0.023,0.004,0.017,-1.566,0.012,0.09,-1,-1,NORMAL
106.96,629.55,325.16,0.352,0.015,-0.005,0.012,-1.568,0.01,0.09,-1,-1,NORMAL
107.02,629.7,325.12,0.352,-0.01,0.005,0.02,-1.569,0.008,0.091,-1,-1,NORMAL
107.08,629.85,325.08,0.352,-0.034,-0.003,0.004,-1.571,0.01,0.091,-1,-1,NORMAL
107.14,630,325.04,0.352,-0.044,-0.003,-0.009,-1.572,0.012,0.092,-1,-1,NORMAL
107.2,630.15,325,0.352,-0.01,-0.022,0.026,-1.575,0.013,0.092,-1,-1,NORMAL
107.26,630.3,324.96,0.352,0.009,0.01,0.002,-1.576,0.014,0.093,-1,-1,NORMAL
107.32,630.45,324.92,0.352,-0.022,0.008,-0.003,-1.576,0.018,0.094,-1,-1,NORMAL
107.38,630.6,324.88,0.352,-0.044,-0.003,0.012,-1.577,0.019,0.094,-1,-1,NORMAL
107.44,630.75,324.84,0.352,-0.015,-0.014,0.004,-1.578,0.02,0.095,-1,-1,NORMAL
107.5,630.9,324.8,0.352,-0.02,-0.006,-0.007,-1.578,0.017,0.096,-1,-1,NORMAL
107.5,630.9,324.8,0.352,-0.02,-0.006,-0.007,-1.578,0.017,0.096,-1,-1,NORMAL
107.5,630.9,324.8,0.352,-0.003,-0.011,0.007,-1.58,0.014,0.097,-1,-1,NORMAL
107.5,630.9,324.8,0.352,0.018,0.003,0.004,-1.579,0.014,0.097,-1,-1,NORMAL
107.5,630.9,324.8,0.352,0,0,0.005,-1.58,0.014,0.098,-1,-1,NORMAL
107.5,630.9,324.8,0.352,-0.044,0.003,-0.003,-1.581,0.014,0.098,-1,-1,NORMAL
107.5,630.9,324.8,0.352,0.008,-0.009,0.023,-1.581,0.015,0.099,-1,-1,NORMAL
107.5,630.9,324.8,0.352,-0.031,0.001,-0.015,-1.58,0.015,0.1,-1,-1,NORMAL
107.5,630.9,324.8,0.352,-0.066,-0.004,0.011,-1.581,0.014,0.1,-1,-1,NORMAL
107.5,630.9,324.8,0.352,-0.061,-0.026,-0.027,-1.582,0.015,0.101,-1,-1,NORMAL
107.5,630.9,324.8,0.352,-0.081,-0.038,-0.01,-1.583,0.015,0.102,-1,-1,NORMAL
107.5,630.96,324.8,0.3168,-0.05,-0.02,0.012,-1.585,0.011,0.102,-1,-1,NORMAL
107.5,631.02,324.8,0.2816,-0.052,0.013,-0.014,-1.586,0.009,0.102,-1,-1,NORMAL
107.5,631.08,324.8,0.2464,-0.034,-0.022,-0.009,-1.588,0.005,0.103,-1,-1,NORMAL
107.5,631.14,324.8,0.2112,-0.008,-0.054,0.006,-1.59,0.003,0.105,-1,-1,NORMAL
107.5,631.2,324.8,0.176,-0.039,-0.035,-0.002,-1.591,0.001,0.106,-1,-1,NORMAL
107.5,631.26,324.8,0.1408,-0.001,0.006,0.008,-1.589,0,0.108,-1,-1,NORMAL
107.5,631.32,324.8,0.1056,0.025,-0.015,-0.022,-1.587,0,0.109,-1,-1,NORMAL
107.5,631.38,324.8,0.0704,0.011,-0.032,-0.002,-1.587,0.003,0.111,-1,-1,NORMAL
107.5,631.44,324.8,0.0352,-0.049,-0.014,0.02,-1.59,0.004,0.113,-1,-1,NORMAL
107.5,631.5,324.8,0,-0.079,-0.035,-0.026,-1.589,0.006,0.115,-1,-1,NORMAL
107.2,631.61,325.16,0.3516,-0.006,-0.07,0.017,-1.586,0.009,0.118,-1,-1,NORMAL
106.9,631.72,325.52,0.7032,0.025,-0.07,-0.033,-1.584,0.01,0.121,-1,-1,NORMAL
106.6,631.83,325.88,1.0548,-0.023,-0.087,0.026,-1.588,0.015,0.124,-1,-1,NORMAL
106.3,631.94,326.24,1.4064,-0.001,-0.091,0.001,-1.59,0.022,0.127,-1,-1,NORMAL
106,632.05,326.6,1.758,-0.003,-0.068,-0.006,-1.589,0.023,0.13,-1,-1,NORMAL
105.7,632.16,326.96,2.1096,-0.014,-0.038,0.007,-1.591,0.022,0.133,-1,-1,NORMAL
105.4,632.27,327.32,2.4612,-0.051,-0.068,0.005,-1.593,0.024,0.137,-1,-1,NORMAL
105.1,632.38,327.68,2.8128,-0.043,-0.075,0.005,-1.594,0.029,0.142,-1,-1,NORMAL
104.8,632.49,328.04,3.1644,-0.001,-0.072,0.001,-1.593,0.032,0.146,-1,-1,NORMAL
104.5,632.6,328.4,3.516,0.024,-0.038,-0.008,-1.592,0.036,0.15,-1,-1,NORMAL
104.8,632.69,327.76,3.7972,-0.033,-0.049,0.014,-1.595,0.038,0.153,-1,-1,NORMAL
105.1,632.78,327.12,4.0784,-0.056,-0.048,-0.019,-1.595,0.038,0.157,-1,-1,NORMAL
105.4,632.87,326.48,4.3596,-0.029,-0.027,-0.02,-1.595,0.036,0.16,-1,-1,NORMAL
105.7,632.96,325.84,4.6408,0.015,-0.025,0,-1.598,0.036,0.164,-1,-1,NORMAL
106,633.05,325.2,4.922,-0.007,-0.01,-0.03,-1.595,0.041,0.168,-1,-1,NORMAL
106.3,633.14,324.56,5.2032,-0.029,-0.02,-0.005,-1.592,0.044,0.172,-1,-1,NORMAL
106.6,633.23,323.92,5.4844,0.01,-0.035,-0.026,-1.591,0.047,0.176,-1,-1,NORMAL
106.9,633.32,323.28,5.7656,-0.015,-0.002,-0.014,-1.591,0.047,0.18,-1,-1,NORMAL
107.2,633.41,322.64,6.0468,-0.038,-0.018,-0.013,-1.591,0.045,0.183,-1,-1,NORMAL
107.5,633.5,322,6.328,-0.032,-0.034,-0.035,-1.589,0.044,0.187,-1,-1,NORMAL
107.51,633.58,321.83,6.5038,-0.009,-0.022,-0.013,-1.588,0.043,0.191,-1,-1,NORMAL
107.52,633.66,321.66,6.6796,0.01,-0.027,-0.002,-1.587,0.04,0.195,-1,-1,NORMAL
107.53,633.74,321.49,6.8554,-0.003,-0.059,-0.005,-1.584,0.04,0.199,-1,-1,NORMAL
107.54,633.82,321.32,7.0312,0.011,-0.019,0.001,-1.586,0.039,0.203,-1,-1,NORMAL
107.55,633.9,321.15,7.207,0.01,-0.012,-0.023,-1.585,0.036,0.207,-1,-1,NORMAL
107.56,633.98,320.98,7.3828,-0.01,-0.013,-0.01,-1.584,0.035,0.211,-1,-1,NORMAL
107.57,634.06,320.81,7.5586,-0.035,-0.012,0.002,-1.585,0.036,0.215,-1,-1,NORMAL
107.58,634.14,320.64,7.7344,-0.018,-0.016,-0.01,-1.584,0.035,0.219,-1,-1,NORMAL
107.59,634.22,320.47,7.9102,0.006,-0.028,0.006,-1.584,0.034,0.222,-1,-1,NORMAL
107.6,634.3,320.3,8.086,0.044,-0.002,-0.004,-1.582,0.031,0.226,-1,-1,NORMAL
107.6,634.44,320.09,7.6641,0.024,0.029,-0.003,-1.581,0.024,0.23,-1,-1,NORMAL
107.6,634.58,319.88,7.2422,0.02,-0.016,0.002,-1.581,0.027,0.234,-1,-1,NORMAL
107.6,634.72,319.67,6.8203,-0.048,-0.043,-0.013,-1.58,0.03,0.238,-1,-1,NORMAL
107.6,634.86,319.46,6.3984,0.006,-0.01,0.008,-1.58,0.03,0.242,-1,-1,NORMAL
107.6,635,319.25,5.9765,0.067,0.031,0.017,-1.579,0.028,0.246,-1,-1,NORMAL
107.6,635.14,319.04,5.5546,0.082,0.001,-0.024,-1.575,0.031,0.249,-1,-1,NORMAL
107.6,635.28,318.83,5.1327,-0.039,-0.038,-0.016,-1.574,0.035,0.254,-1,-1,NORMAL
107.6,635.42,318.62,4.7108,-0.158,-0.011,0,-1.577,0.036,0.258,-1,-1,NORMAL
107.6,635.56,318.41,4.2889,-0.129,0.01,0.017,-1.579,0.036,0.262,-1,-1,NORMAL
107.6,635.7,318.2,3.867,-0.03,0.002,-0.002,-1.58,0.036,0.265,-1,-1,NORMAL
107.57,635.81,317.88,4.0076,0.057,0.022,0.029,-1.58,0.038,0.268,-1,-1,NORMAL
107.54,635.92,317.56,4.1482,0.112,-0.003,0.018,-1.582,0.036,0.272,-1,-1,NORMAL
107.51,636.03,317.24,4.2888,0.034,-0.013,-0.022,-1.579,0.036,0.276,-1,-1,NORMAL
107.48,636.14,316.92,4.4294,-0.096,-0.018,0.014,-1.579,0.032,0.28,-1,-1,NORMAL
107.45,636.25,316.6,4.57,-0.072,-0.007,0.022,-1.58,0.033,0.283,-1,-1,NORMAL
107.42,636.36,316.28,4.7106,-0.078,-0.031,-0.036,-1.58,0.029,0.286,-1,-1,NORMAL
107.39,636.47,315.96,4.8512,0.006,0.024,0.037,-1.582,0.026,0.289,-1,-1,NORMAL
107.36,636.58,315.64,4.9918,0.032,0.024,0.008,-1.583,0.025,0.292,-1,-1,NORMAL
107.33,636.69,315.32,5.1324,0.029,0.003,0.023,-1.584,0.023,0.295,-1,-1,NORMAL
107.3,636.8,315,5.273,-0.009,-0.029,0.006,-1.584,0.026,0.299,-1,-1,NORMAL
107.34,636.9,314.79,5.273,0.013,-0.015,0.012,-1.583,0.028,0.304,-1,-1,NORMAL
107.38,637,314.58,5.273,0.033,-0.006,0.002,-1.582,0.031,0.308,-1,-1,NORMAL
107.42,637.1,314.37,5.273,0.071,-0.012,0.011,-1.582,0.032,0.311,-1,-1,NORMAL
107.46,637.2,314.16,5.273,-0.012,0.017,0,-1.58,0.034,0.315,-1,-1,NORMAL
107.5,637.3,313.95,5.273,-0.017,-0.01,0.017,-1.582,0.035,0.319,-1,-1,NORMAL
107.54,637.4,313.74,5.273,0.02,-0.013,0.002,-1.581,0.037,0.322,-1,-1,NORMAL
107.58,637.5,313.53,5.273,-0.013,-0.022,0.014,-1.582,0.038,0.326,-1,-1,NORMAL
107.62,637.6,313.32,5.273,0.007,-0.001,0.001,-1.58,0.037,0.33,-1,-1,NORMAL
107.66,637.7,313.11,5.273,-0.016,-0.014,0.01,-1.581,0.035,0.334,-1,-1,NORMAL
107.7,637.8,312.9,5.273,0.024,0.004,0.032,-1.583,0.032,0.337,-1,-1,NORMAL
107.66,637.95,312.62,5.2379,0.027,0.007,0.002,-1.584,0.033,0.341,-1,-1,NORMAL
107.62,638.1,312.34,5.2028,-0.044,0.02,0.01,-1.585,0.032,0.344,-1,-1,NORMAL
107.58,638.25,312.06,5.1677,-0.006,-0.008,0.009,-1.585,0.032,0.348,-1,-1,NORMAL
107.54,638.4,311.78,5.1326,-0.037,0.018,-0.009,-1.585,0.034,0.351,-1,-1,NORMAL
107.5,638.55,311.5,5.0975,-0.005,-0.004,0.033,-1.589,0.035,0.355,-1,-1,NORMAL
107.46,638.7,311.22,5.0624,0.021,-0.019,-0.004,-1.589,0.035,0.358,-1,-1,NORMAL
107.42,638.85,310.94,5.0273,-0.027,-0.014,0.003,-1.59,0.034,0.361,-1,-1,NORMAL
107.38,639,310.66,4.9922,0.007,-0.024,0.029,-1.593,0.033,0.365,-1,-1,NORMAL
107.34,639.15,310.38,4.9571,0.022,0.008,0.005,-1.593,0.031,0.369,-1,-1,NORMAL
107.3,639.3,310.1,4.922,0.024,-0.047,0.029,-1.591,0.031,0.372,-1,-1,NORMAL
107.45,639.35,309.85,4.9571,0.066,-0.046,0.009,-1.589,0.03,0.376,-1,-1,NORMAL
107.6,639.4,309.6,4.9922,0.015,-0.038,0.037,-1.59,0.032,0.38,-1,-1,NORMAL
107.75,639.45,309.35,5.0273,-0.052,-0.027,0.016,-1.592,0.033,0.384,-1,-1,NORMAL
107.9,639.5,309.1,5.0624,-0.04,-0.025,0.01,-1.595,0.033,0.388,-1,-1,NORMAL
108.05,639.55,308.85,5.0975,0.024,-0.027,0.003,-1.595,0.034,0.391,-1,-1,NORMAL
108.2,639.6,308.6,5.1326,0.018,-0.046,0.024,-1.597,0.04,0.395,-1,-1,NORMAL
108.35,639.65,308.35,5.1677,-0.015,-0.017,-0.005,-1.597,0.043,0.399,-1,-1,NORMAL
108.5,639.7,308.1,5.2028,0,-0.001,0.009,-1.595,0.046,0.403,-1,-1,NORMAL
108.65,639.75,307.85,5.2379,0.001,0.005,-0.04,-1.593,0.047,0.406,-1,-1,NORMAL
108.8,639.8,307.6,5.273,-0.031,0.014,-0.048,-1.593,0.046,0.409,-1,-1,NORMAL
108.93,639.92,307.46,5.1324,-0.014,0.038,-0.07,-1.592,0.045,0.412,181.91,6.02,NORMAL
109.06,640.04,307.32,4.9918,-0.019,0.021,-0.059,-1.586,0.043,0.414,180.375,5.935,NORMAL
109.19,640.16,307.18,4.8512,0.017,0.004,-0.062,-1.58,0.044,0.416,178.84,5.85,NORMAL
109.32,640.28,307.04,4.7106,-0.001,0.021,-0.059,-1.574,0.039,0.418,-1,-1,NORMAL
109.45,640.4,306.9,4.57,0.037,0.043,-0.048,-1.571,0.035,0.421,165.18,5.4,NORMAL
109.58,640.52,306.76,4.4294,0.05,0.019,-0.067,-1.564,0.034,0.423,160.51,5.25,NORMAL
109.71,640.64,306.62,4.2888,-0.029,0.018,-0.057,-1.559,0.036,0.426,-1,-1,NORMAL
109.84,640.76,306.48,4.1482,-0.016,0.058,-0.037,-1.556,0.034,0.428,-1,-1,NORMAL
109.97,640.88,306.34,4.0076,0.001,0.039,-0.049,-1.552,0.03,0.43,-1,-1,NORMAL
110.1,641,306.2,3.867,0.021,0.026,-0.059,-1.547,0.031,0.431,-1,-1,NORMAL
71.74,605.93,88.24,0.352,-0.012,0.048,-0.016,-1.615,0.003,0.201,-1,-1,DROWSY
71.88,605.96,88.28,0.352,0.016,0.036,-0.011,-1.612,0.003,0.2,-1,-1,DROWSY
72.02,605.99,88.32,0.352,0.047,0.029,0.011,-1.611,0.005,0.199,-1,-1,DROWSY
72.16,606.02,88.36,0.352,0.027,0.044,-0.004,-1.61,0.001,0.198,-1,-1,DROWSY
72.3,606.05,88.4,0.352,0.039,0.051,0,-1.611,-0.004,0.196,-1,-1,DROWSY
72.44,606.08,88.44,0.352,-0.088,0.042,-0.013,-1.613,-0.005,0.195,-1,-1,DROWSY
72.58,606.11,88.48,0.352,-0.066,0.035,-0.01,-1.614,-0.004,0.193,-1,-1,DROWSY
72.72,606.14,88.52,0.352,-0.008,0.032,0.016,-1.616,-0.004,0.191,-1,-1,DROWSY
72.86,606.17,88.56,0.352,0.095,0.06,0.009,-1.613,-0.003,0.189,-1,-1,DROWSY
73,606.2,88.6,0.352,0.076,-0.01,0.001,-1.611,-0.001,0.186,-1,-1,DROWSY
73.03,606.25,88.78,0.5277,0.002,0.042,-0.024,-1.607,-0.007,0.182,-1,-1,DROWSY
73.06,606.3,88.96,0.7034,-0.08,0.096,-0.018,-1.606,-0.012,0.179,-1,-1,DROWSY
73.09,606.35,89.14,0.8791,-0.086,0.14,0.004,-1.606,-0.015,0.174,-1,-1,DROWSY
73.12,606.4,89.32,1.0548,-0.013,0.092,0.001,-1.605,-0.017,0.17,-1,-1,DROWSY
73.15,606.45,89.5,1.2305,0.042,0.065,-0.012,-1.604,-0.013,0.166,-1,-1,DROWSY
73.18,606.5,89.68,1.4062,0.063,0.061,-0.003,-1.604,-0.01,0.161,-1,-1,DROWSY
73.21,606.55,89.86,1.5819,-0.014,0.019,0.011,-1.605,-0.01,0.157,-1,-1,DROWSY
73.24,606.6,90.04,1.7576,-0.033,0.05,0.027,-1.606,-0.014,0.152,-1,-1,DROWSY
73.27,606.65,90.22,1.9333,0.011,0.028,-0.022,-1.609,-0.019,0.148,-1,-1,DROWSY
73.3,606.7,90.4,2.109,-0.005,0.023,0.004,-1.609,-0.019,0.14,-1,-1,DROWSY
73.3,606.7,90.4,2.109,-0.005,0.023,0.004,-1.609,-0.019,0.14,-1,-1,DROWSY
73.3,606.7,90.4,2.109,0.037,0.01,0.015,-1.61,-0.023,0.136,-1,-1,DROWSY
73.3,606.7,90.4,2.109,0.009,-0.059,-0.007,-1.612,-0.024,0.133,-1,-1,DROWSY
73.3,606.7,90.4,2.109,0.075,0.069,-0.015,-1.612,-0.025,0.131,-1,-1,DROWSY
73.3,606.7,90.4,2.109,0.004,-0.057,0.007,-1.611,-0.028,0.128,-1,-1,DROWSY
73.3,606.7,90.4,2.109,-0.103,0.018,-0.066,-1.611,-0.031,0.126,-1,-1,DROWSY
73.3,606.7,90.4,2.109,-0.13,0.026,-0.017,-1.617,-0.031,0.125,-1,-1,DROWSY
73.3,606.7,90.4,2.109,-0.107,0.104,0.006,-1.621,-0.029,0.123,-1,-1,DROWSY
73.3,606.7,90.4,2.109,0.051,-0.024,0.03,-1.622,-0.024,0.12,-1,-1,DROWSY
73.3,606.7,90.4,2.109,0.078,-0.039,-0.001,-1.62,-0.02,0.117,-1,-1,DROWSY
73.56,606.76,90.71,2.2145,0.127,0.024,0.02,-1.619,-0.018,0.114,-1,-1,DROWSY
73.82,606.82,91.02,2.32,0.051,0.059,-0.058,-1.616,-0.019,0.111,-1,-1,DROWSY
74.08,606.88,91.33,2.4255,-0.086,-0.02,-0.033,-1.617,-0.018,0.107,-1,-1,DROWSY
74.34,606.94,91.64,2.531,-0.054,0.043,-0.007,-1.616,-0.016,0.104,-1,-1,DROWSY
74.6,607,91.95,2.6365,0.003,0.04,-0.016,-1.613,-0.017,0.101,-1,-1,DROWSY
74.86,607.06,92.26,2.742,-0.032,0.005,-0.013,-1.606,-0.026,0.097,-1,-1,DROWSY
75.12,607.12,92.57,2.8475,-0.018,0.054,0.024,-1.604,-0.031,0.093,-1,-1,DROWSY
75.38,607.18,92.88,2.953,0.052,0.055,0.024,-1.605,-0.032,0.089,-1,-1,DROWSY
75.64,607.24,93.19,3.0585,-0.067,-0.006,0.007,-1.605,-0.033,0.085,-1,-1,DROWSY
75.9,607.3,93.5,3.164,0.032,0.024,0.028,-1.605,-0.033,0.082,-1,-1,DROWSY
75.94,607.36,93.78,3.2343,-0.029,0.005,0.001,-1.604,-0.036,0.079,-1,-1,DROWSY
75.98,607.42,94.06,3.3046,0,-0.012,0,-1.604,-0.037,0.075,-1,-1,DROWSY
76.02,607.48,94.34,3.3749,-0.003,-0.002,-0.002,-1.602,-0.036,0.072,-1,-1,DROWSY
76.06,607.54,94.62,3.4452,-0.037,0.011,0.017,-1.602,-0.035,0.068,-1,-1,DROWSY
76.1,607.6,94.9,3.5155,0.01,0.034,-0.001,-1.606,-0.035,0.065,-1,-1,DROWSY
76.14,607.66,95.18,3.5858,0,0.01,-0.009,-1.608,-0.035,0.062,-1,-1,DROWSY
76.18,607.72,95.46,3.6561,-0.032,0.019,0.007,-1.609,-0.035,0.059,-1,-1,DROWSY
76.22,607.78,95.74,3.7264,0.07,0.033,0,-1.61,-0.039,0.056,-1,-1,DROWSY
76.26,607.84,96.02,3.7967,0.052,0.014,0.021,-1.61,-0.042,0.053,-1,-1,DROWSY
76.3,607.9,96.3,3.867,-0.058,-0.031,-0.002,-1.61,-0.04,0.05,-1,-1,DROWSY
76.49,607.93,96.44,3.9022,-0.035,-0.014,-0.001,-1.609,-0.048,0.047,-1,-1,DROWSY
76.68,607.96,96.58,3.9374,0.086,-0.002,0.003,-1.609,-0.049,0.044,-1,-1,DROWSY
76.87,607.99,96.72,3.9726,-0.053,-0.017,0,-1.608,-0.047,0.041,-1,-1,DROWSY
77.06,608.02,96.86,4.0078,-0.046,-0.034,-0.002,-1.608,-0.048,0.038,-1,-1,DROWSY
77.25,608.05,97,4.043,-0.056,-0.029,-0.019,-1.608,-0.048,0.035,-1,-1,DROWSY
77.44,608.08,97.14,4.0782,-0.003,0.049,-0.005,-1.609,-0.048,0.032,-1,-1,DROWSY
77.63,608.11,97.28,4.1134,0.038,-0.034,0.02,-1.607,-0.045,0.029,-1,-1,DROWSY
77.82,608.14,97.42,4.1486,-0.027,-0.008,-0.015,-1.607,-0.041,0.027,-1,-1,DROWSY
78.01,608.17,97.56,4.1838,-0.122,-0.044,0.016,-1.608,-0.038,0.025,-1,-1,DROWSY
78.2,608.2,97.7,4.219,0.004,-0.047,0.037,-1.611,-0.038,0.023,-1,-1,DROWSY
78.22,608.23,97.74,3.9729,-0.011,0.008,-0.007,-1.611,-0.038,0.022,-1,-1,DROWSY
78.24,608.26,97.78,3.7268,-0.008,-0.014,0.015,-1.61,-0.039,0.02,-1,-1,DROWSY
78.26,608.29,97.82,3.4807,-0.051,-0.137,-0.036,-1.609,-0.039,0.018,-1,-1,DROWSY
78.28,608.32,97.86,3.2346,0.146,0.037,-0.012,-1.61,-0.041,0.017,-1,-1,DROWSY
78.3,608.35,97.9,2.9885,0.038,-0.032,0.014,-1.612,-0.041,0.016,-1,-1,DROWSY
78.32,608.38,97.94,2.7424,-0.082,-0.053,-0.015,-1.611,-0.041,0.015,-1,-1,DROWSY
78.34,608.41,97.98,2.4963,0.064,-0.073,0.014,-1.614,-0.034,0.014,-1,-1,DROWSY
78.36,608.44,98.02,2.2502,-0.003,-0.078,-0.011,-1.62,-0.026,0.013,-1,-1,DROWSY
78.38,608.47,98.06,2.0041,-0.038,-0.055,-0.016,-1.621,-0.025,0.012,-1,-1,DROWSY
78.4,608.5,98.1,1.758,-0.059,-0.075,-0.033,-1.62,-0.023,0.012,-1,-1,DROWSY
78.57,608.52,98.1,1.758,-0.097,-0.068,-0.005,-1.623,-0.024,0.012,-1,-1,DROWSY
78.74,608.54,98.1,1.758,-0.046,-0.058,0.011,-1.624,-0.028,0.012,-1,-1,DROWSY
78.91,608.56,98.1,1.758,-0.012,-0.085,-0.03,-1.623,-0.03,0.011,-1,-1,DROWSY
79.08,608.58,98.1,1.758,0.01,-0.038,-0.02,-1.623,-0.03,0.012,-1,-1,DROWSY
79.25,608.6,98.1,1.758,0.051,-0.068,0.009,-1.624,-0.029,0.014,-1,-1,DROWSY
79.42,608.62,98.1,1.758,-0.003,-0.069,-0.025,-1.62,-0.019,0.016,-1,-1,DROWSY
79.59,608.64,98.1,1.758,-0.012,-0.065,0.001,-1.619,-0.006,0.017,-1,-1,DROWSY
79.76,608.66,98.1,1.758,0.008,-0.056,-0.005,-1.622,0.002,0.019,-1,-1,DROWSY
79.93,608.68,98.1,1.758,0.011,-0.013,-0.018,-1.617,0.009,0.019,-1,-1,DROWSY
80.1,608.7,98.1,1.758,-0.018,-0.013,0.009,-1.617,0.014,0.019,-1,-1,DROWSY
80.18,608.74,98.1,1.5822,-0.007,0.017,-0.03,-1.616,0.019,0.019,-1,-1,DROWSY
80.26,608.78,98.1,1.4064,-0.026,0.007,-0.019,-1.613,0.016,0.019,-1,-1,DROWSY
80.34,608.82,98.1,1.2306,-0.032,-0.006,0.008,-1.611,0.011,0.019,-1,-1,DROWSY
80.42,608.86,98.1,1.0548,0.001,-0.008,-0.001,-1.612,0.014,0.019,-1,-1,DROWSY
80.5,608.9,98.1,0.879,-0.046,-0.023,-0.005,-1.611,0.013,0.018,-1,-1,DROWSY
80.58,608.94,98.1,0.7032,0.02,-0.007,-0.001,-1.611,0.013,0.019,-1,-1,DROWSY
80.66,608.98,98.1,0.5274,-0.005,-0.015,-0.011,-1.61,0.012,0.018,-1,-1,DROWSY
80.74,609.02,98.1,0.3516,0.097,0.008,0.014,-1.611,0.011,0.018,-1,-1,DROWSY
80.82,609.06,98.1,0.1758,-0.034,-0.006,-0.005,-1.61,0.01,0.017,-1,-1,DROWSY
80.9,609.1,98.1,0,0.035,-0.025,0.005,-1.609,0.008,0.016,-1,-1,DROWSY
81.06,609.17,98.17,0.0703,-0.0245,-0.012,-0.0045,-1.609,0.007,0.015,-1,-1,DROWSY
81.22,609.24,98.24,0.1406,-0.084,0.001,-0.014,-1.609,0.006,0.014,-1,-1,DROWSY
81.38,609.31,98.31,0.2109,-0.084,0.018,0.004,-1.61,0.007,0.013,-1,-1,DROWSY
81.54,609.38,98.38,0.2812,-0.093,0.012,-0.018,-1.611,0.014,0.012,-1,-1,DROWSY
81.7,609.45,98.45,0.3515,0.03,-0.012,0.016,-1.61,0.015,0.012,-1,-1,DROWSY
81.86,609.52,98.52,0.4218,-0.003,-0.034,0.009,-1.61,0.014,0.011,-1,-1,DROWSY
82.02,609.59,98.59,0.4921,0.016,0.008,-0.001,-1.61,0.012,0.01,-1,-1,DROWSY
82.18,609.66,98.66,0.5624,0.073,0.014,0.008,-1.61,0.009,0.01,-1,-1,DROWSY
82.34,609.73,98.73,0.6327,-0.03,-0.002,-0.002,-1.608,0.005,0.01,-1,-1,DROWSY
82.5,609.8,98.8,0.703,0.016,0.025,-0.013,-1.606,0.005,0.009,-1,-1,DROWSY
82.42,609.82,98.94,0.703,0.016,0.045,-0.047,-1.6,-0.001,0.007,-1,-1,DROWSY
82.34,609.84,99.08,0.703,0.002,0.041,-0.041,-1.593,-0.009,0.005,-1,-1,DROWSY
82.26,609.86,99.22,0.703,-0.082,0.01,-0.063,-1.591,-0.016,0.002,-1,-1,DROWSY
82.18,609.88,99.36,0.703,-0.055,0.044,-0.043,-1.592,-0.018,-0.002,-1,-1,DROWSY
82.1,609.9,99.5,0.703,-0.037,0.099,-0.045,-1.593,-0.02,-0.006,-1,-1,DROWSY
82.02,609.92,99.64,0.703,-0.011,0.073,-0.043,-1.593,-0.019,-0.009,-1,-1,DROWSY
81.94,609.94,99.78,0.703,0.014,-0.002,-0.042,-1.594,-0.019,-0.013,-1,-1,DROWSY
81.86,609.96,99.92,0.703,0.074,0.086,-0.048,-1.594,-0.019,-0.016,-1,-1,DROWSY
81.78,609.98,100.06,0.703,0.038,0.079,-0.047,-1.593,-0.019,-0.02,-1,-1,DROWSY
81.7,610,100.2,0.703,0.024,0.019,-0.026,-1.587,-0.025,-0.024,-1,-1,DROWSY
81.67,610.02,100.41,0.8436,0.016,0.044,0.004,-1.584,-0.031,-0.027,-1,-1,DROWSY
81.64,610.04,100.62,0.9842,0.003,0.022,-0.044,-1.582,-0.032,-0.03,-1,-1,DROWSY
81.61,610.06,100.83,1.1248,-0.042,0.019,-0.029,-1.584,-0.031,-0.033,-1,-1,DROWSY
81.58,610.08,101.04,1.2654,-0.115,-0.019,-0.003,-1.586,-0.03,-0.035,-1,-1,DROWSY
81.55,610.1,101.25,1.406,-0.067,-0.019,0.005,-1.588,-0.032,-0.037,-1,-1,DROWSY
81.52,610.12,101.46,1.5466,-0.105,0.002,-0.029,-1.589,-0.03,-0.039,-1,-1,DROWSY
81.49,610.14,101.67,1.6872,0.076,0.021,0.003,-1.59,-0.027,-0.041,-1,-1,DROWSY
81.46,610.16,101.88,1.8278,-0.088,-0.049,-0.006,-1.592,-0.027,-0.042,-1,-1,DROWSY
81.43,610.18,102.09,1.9684,0.006,0.016,0.002,-1.593,-0.032,-0.045,-1,-1,DROWSY
81.4,610.2,102.3,2.109,0.022,-0.005,-0.004,-1.591,-0.04,-0.047,-1,-1,DROWSY
81.48,610.18,102.41,2.2145,-0.009,-0.007,0.006,-1.589,-0.039,-0.05,-1,-1,DROWSY
81.56,610.16,102.52,2.32,0.047,0.023,0.014,-1.591,-0.039,-0.053,-1,-1,DROWSY
81.64,610.14,102.63,2.4255,0.019,0.029,-0.009,-1.591,-0.041,-0.056,-1,-1,DROWSY
81.72,610.12,102.74,2.531,-0.018,0.015,-0.021,-1.591,-0.044,-0.059,-1,-1,DROWSY
81.8,610.1,102.85,2.6365,-0.007,-0.011,-0.024,-1.589,-0.045,-0.062,-1,-1,DROWSY
81.88,610.08,102.96,2.742,-0.06,0.011,-0.003,-1.588,-0.044,-0.065,-1,-1,DROWSY
81.96,610.06,103.07,2.8475,-0.008,0.01,-0.009,-1.589,-0.043,-0.068,-1,-1,DROWSY
82.04,610.04,103.18,2.953,-0.004,0.009,0.016,-1.59,-0.042,-0.071,-1,-1,DROWSY
82.12,610.02,103.29,3.0585,0.038,0.02,-0.017,-1.589,-0.041,-0.073,-1,-1,DROWSY
82.2,610,103.4,3.164,0.04,-0.001,-0.004,-1.589,-0.039,-0.075,-1,-1,DROWSY
82.24,610.02,103.57,3.1288,-0.011,-0.024,-0.016,-1.586,-0.037,-0.077,-1,-1,DROWSY
82.28,610.04,103.74,3.0936,-0.041,-0.039,-0.01,-1.585,-0.039,-0.079,-1,-1,DROWSY
82.32,610.06,103.91,3.0584,-0.029,0.019,0.019,-1.586,-0.036,-0.08,-1,-1,DROWSY
82.36,610.08,104.08,3.0232,-0.02,-0.038,-0.033,-1.585,-0.041,-0.082,-1,-1,DROWSY
82.4,610.1,104.25,2.988,-0.067,-0.027,0.002,-1.585,-0.043,-0.084,-1,-1,DROWSY
82.44,610.12,104.42,2.9528,0.032,0.002,0.007,-1.585,-0.041,-0.086,-1,-1,DROWSY
82.48,610.14,104.59,2.9176,0.007,-0.013,0,-1.586,-0.04,-0.088,-1,-1,DROWSY
82.52,610.16,104.76,2.8824,0.01,-0.011,0.009,-1.583,-0.039,-0.09,-1,-1,DROWSY
82.56,610.18,104.93,2.8472,-0.006,-0.018,-0.01,-1.582,-0.036,-0.092,-1,-1,DROWSY
82.6,610.2,105.1,2.812,-0.051,-0.027,-0.002,-1.583,-0.036,-0.094,-1,-1,DROWSY
82.62,610.22,105.28,2.8824,-0.009,0,-0.013,-1.579,-0.038,-0.096,-1,-1,DROWSY
82.64,610.24,105.46,2.9528,-0.006,0.014,-0.004,-1.578,-0.041,-0.099,-1,-1,DROWSY
82.66,610.26,105.64,3.0232,-0.049,0.021,-0.008,-1.578,-0.041,-0.102,-1,-1,DROWSY
82.68,610.28,105.82,3.0936,-0.007,0.029,0.029,-1.582,-0.046,-0.106,-1,-1,DROWSY
82.7,610.3,106,3.164,0.01,0.013,0.008,-1.584,-0.047,-0.109,-1,-1,DROWSY
82.72,610.32,106.18,3.2344,-0.048,-0.02,-0.005,-1.583,-0.049,-0.113,-1,-1,DROWSY
82.74,610.34,106.36,3.3048,-0.003,0.015,-0.004,-1.583,-0.049,-0.116,-1,-1,DROWSY
82.76,610.36,106.54,3.3752,0.038,0.015,-0.024,-1.583,-0.047,-0.118,-1,-1,DROWSY
82.78,610.38,106.72,3.4456,-0.051,-0.071,-0.003,-1.581,-0.045,-0.12,-1,-1,DROWSY
82.8,610.4,106.9,3.516,0.009,-0.034,0.001,-1.581,-0.043,-0.121,-1,-1,DROWSY
82.79,610.38,107.04,3.4808,0.024,-0.027,0.005,-1.58,-0.039,-0.122,-1,-1,DROWSY
82.78,610.36,107.18,3.4456,0.0115,-0.0225,0.0055,-1.5805,-0.0375,-0.1225,-1,-1,DROWSY
82.77,610.34,107.32,3.4104,-0.001,-0.018,0.006,-1.581,-0.036,-0.123,-1,-1,DROWSY
82.76,610.32,107.46,3.3752,-0.021,-0.011,-0.003,-1.581,-0.037,-0.126,-1,-1,DROWSY
82.75,610.3,107.6,3.34,-0.056,-0.013,0.015,-1.582,-0.035,-0.128,-1,-1,DROWSY
82.74,610.28,107.74,3.3048,0.004,-0.007,0.01,-1.582,-0.034,-0.13,-1,-1,DROWSY
82.73,610.26,107.88,3.2696,-0.005,0.033,0.024,-1.583,-0.035,-0.132,-1,-1,DROWSY
82.72,610.24,108.02,3.2344,0.002,0.025,-0.014,-1.584,-0.036,-0.134,-1,-1,DROWSY
82.71,610.22,108.16,3.1992,-0.019,-0.002,-0.029,-1.584,-0.037,-0.136,-1,-1,DROWSY
